{
  "id": "bde1",
  "name": "1 Bde",
  "type": "brigade",
  "position": {
    "lat": 46.575,
    "lon": 8.01,
    "alt": 2500
  },
  "children": [
    {
      "id": "rgt1",
      "name": "1 Rgt",
      "type": "regiment",
      "position": {
        "lat": 46.575,
        "lon": 8.01,
        "alt": 2500
      },
      "children": [
        {
          "id": "bn1",
          "name": "1 Bn",
          "type": "battalion",
          "position": {
            "lat": 46.572,
            "lon": 8.01,
            "alt": 3246
          },
          "children": [
    {
      "id": "co1",
      "name": "A Co",
      "type": "company",
      "position": {
        "lat": 46.554,
        "lon": 7.965,
        "alt": 2837
      },
      "children": [
        {
          "id": "pl1",
          "name": "1 Plt",
          "type": "platoon",
          "position": {
            "lat": 46.583,
            "lon": 7.965,
            "alt": 2088
          },
          "children": [
            {
              "id": "sq1",
              "name": "1 Sqd",
              "type": "squad",
              "position": {
                "lat": 46.589,
                "lon": 7.948,
                "alt": 2343
              },
              "children": [
                {
                  "id": "ind1",
                  "name": "Ind. Spartan",
                  "type": "individual",
                  "position": {
                    "lat": 46.589562,
                    "lon": 7.948163,
                    "alt": 2343
                  },
                  "children": []
                },
                {
                  "id": "ind2",
                  "name": "Ind. Titan",
                  "type": "individual",
                  "position": {
                    "lat": 46.590401,
                    "lon": 7.949453,
                    "alt": 2382
                  },
                  "children": []
                },
                {
                  "id": "ind3",
                  "name": "Ind. Nomad",
                  "type": "individual",
                  "position": {
                    "lat": 46.588426,
                    "lon": 7.948395,
                    "alt": 2343
                  },
                  "children": []
                },
                {
                  "id": "ind4",
                  "name": "Ind. Striker",
                  "type": "individual",
                  "position": {
                    "lat": 46.590094,
                    "lon": 7.947661,
                    "alt": 2374
                  },
                  "children": []
                },
                {
                  "id": "ind5",
                  "name": "Ind. Blaze",
                  "type": "individual",
                  "position": {
                    "lat": 46.588451,
                    "lon": 7.94914,
                    "alt": 2343
                  },
                  "children": []
                }
              ],
              "commander": {
                "id": "cmd10",
                "name": "Cmd. Cobra"
              }
            },
            {
              "id": "sq2",
              "name": "2 Sqd",
              "type": "squad",
              "position": {
                "lat": 46.577,
                "lon": 7.974,
                "alt": 2285
              },
              "children": [
                {
                  "id": "ind6",
                  "name": "Ind. Sabre",
                  "type": "individual",
                  "position": {
                    "lat": 46.576519,
                    "lon": 7.974099,
                    "alt": 2285
                  },
                  "children": []
                },
                {
                  "id": "ind7",
                  "name": "Ind. Talon",
                  "type": "individual",
                  "position": {
                    "lat": 46.577354,
                    "lon": 7.975103,
                    "alt": 2191
                  },
                  "children": []
                },
                {
                  "id": "ind8",
                  "name": "Ind. Bravo",
                  "type": "individual",
                  "position": {
                    "lat": 46.575953,
                    "lon": 7.97336,
                    "alt": 2285
                  },
                  "children": []
                },
                {
                  "id": "ind9",
                  "name": "Ind. De Sierra",
                  "type": "individual",
                  "position": {
                    "lat": 46.57696,
                    "lon": 7.973324,
                    "alt": 2285
                  },
                  "children": []
                },
                {
                  "id": "ind10",
                  "name": "Ind. Tango",
                  "type": "individual",
                  "position": {
                    "lat": 46.577814,
                    "lon": 7.974715,
                    "alt": 2153
                  },
                  "children": []
                }
              ],
              "commander": {
                "id": "cmd13",
                "name": "Cmd. Frost"
              }
            },
            {
              "id": "sq3",
              "name": "3 Sqd",
              "type": "squad",
              "position": {
                "lat": 46.586,
                "lon": 7.959,
                "alt": 2081
              },
              "children": [
                {
                  "id": "ind11",
                  "name": "Ind. Kilo",
                  "type": "individual",
                  "position": {
                    "lat": 46.585058,
                    "lon": 7.96004,
                    "alt": 2059
                  },
                  "children": []
                },
                {
                  "id": "ind12",
                  "name": "Ind. Lima",
                  "type": "individual",
                  "position": {
                    "lat": 46.586134,
                    "lon": 7.958914,
                    "alt": 2081
                  },
                  "children": []
                },
                {
                  "id": "ind13",
                  "name": "Ind. Oscar",
                  "type": "individual",
                  "position": {
                    "lat": 46.586,
                    "lon": 7.96018,
                    "alt": 2081
                  },
                  "children": []
                },
                {
                  "id": "ind14",
                  "name": "Ind. Papa",
                  "type": "individual",
                  "position": {
                    "lat": 46.585763,
                    "lon": 7.958828,
                    "alt": 2081
                  },
                  "children": []
                },
                {
                  "id": "ind15",
                  "name": "Ind. Quebec",
                  "type": "individual",
                  "position": {
                    "lat": 46.586652,
                    "lon": 7.959054,
                    "alt": 2081
                  },
                  "children": []
                }
              ],
              "commander": {
                "id": "cmd16",
                "name": "Cmd. Delta"
              }
            },
            {
              "id": "sq4",
              "name": "4 Sqd",
              "type": "squad",
              "position": {
                "lat": 46.58,
                "lon": 7.982,
                "alt": 2297
              },
              "children": [
                {
                  "id": "ind16",
                  "name": "Ind. Zulu",
                  "type": "individual",
                  "position": {
                    "lat": 46.579003,
                    "lon": 7.980793,
                    "alt": 2269
                  },
                  "children": []
                },
                {
                  "id": "ind17",
                  "name": "Ind. Archer",
                  "type": "individual",
                  "position": {
                    "lat": 46.579626,
                    "lon": 7.982985,
                    "alt": 2297
                  },
                  "children": []
                },
                {
                  "id": "ind18",
                  "name": "Ind. Bishop",
                  "type": "individual",
                  "position": {
                    "lat": 46.58055,
                    "lon": 7.980754,
                    "alt": 2240
                  },
                  "children": []
                },
                {
                  "id": "ind19",
                  "name": "Ind. Castle",
                  "type": "individual",
                  "position": {
                    "lat": 46.579311,
                    "lon": 7.9826,
                    "alt": 2297
                  },
                  "children": []
                },
                {
                  "id": "ind20",
                  "name": "Ind. Dagger",
                  "type": "individual",
                  "position": {
                    "lat": 46.581068,
                    "lon": 7.982378,
                    "alt": 2297
                  },
                  "children": []
                }
              ],
              "commander": {
                "id": "cmd19",
                "name": "Cmd. Romeo"
              }
            },
            {
              "id": "sq5",
              "name": "5 Sqd",
              "type": "squad",
              "position": {
                "lat": 46.592,
                "lon": 7.969,
                "alt": 1895
              },
              "children": [
                {
                  "id": "ind21",
                  "name": "Ind. Hammer",
                  "type": "individual",
                  "position": {
                    "lat": 46.593164,
                    "lon": 7.968535,
                    "alt": 1936
                  },
                  "children": []
                },
                {
                  "id": "ind22",
                  "name": "Ind. Iron",
                  "type": "individual",
                  "position": {
                    "lat": 46.592382,
                    "lon": 7.968219,
                    "alt": 1936
                  },
                  "children": []
                },
                {
                  "id": "ind23",
                  "name": "Ind. Javelin",
                  "type": "individual",
                  "position": {
                    "lat": 46.591336,
                    "lon": 7.96828,
                    "alt": 1915
                  },
                  "children": []
                },
                {
                  "id": "ind24",
                  "name": "Ind. Knight",
                  "type": "individual",
                  "position": {
                    "lat": 46.592057,
                    "lon": 7.968964,
                    "alt": 1895
                  },
                  "children": []
                },
                {
                  "id": "ind25",
                  "name": "Ind. Lancer",
                  "type": "individual",
                  "position": {
                    "lat": 46.590827,
                    "lon": 7.969846,
                    "alt": 1890
                  },
                  "children": []
                }
              ],
              "commander": {
                "id": "cmd22",
                "name": "Cmd. Ember"
              }
            }
          ],
          "commander": {
            "id": "cmd7",
            "name": "Cmd. Thunder"
          },
          "staff": [
            {
              "id": "staff8",
              "name": "Stf. Eagle",
              "position": {
                "lat": 46.582152,
                "lon": 7.964563,
                "alt": 2102
              }
            },
            {
              "id": "staff9",
              "name": "Stf. Wolf",
              "position": {
                "lat": 46.582306,
                "lon": 7.964167,
                "alt": 2102
              }
            }
          ]
        },
        {
          "id": "pl2",
          "name": "2 Plt",
          "type": "platoon",
          "position": {
            "lat": 46.539,
            "lon": 7.99,
            "alt": 3217
          },
          "children": [
            {
              "id": "sq6",
              "name": "6 Sqd",
              "type": "squad",
              "position": {
                "lat": 46.545,
                "lon": 7.978,
                "alt": 3425
              },
              "children": [
                {
                  "id": "ind26",
                  "name": "Ind. Storm",
                  "type": "individual",
                  "position": {
                    "lat": 46.546256,
                    "lon": 7.97685,
                    "alt": 3510
                  },
                  "children": []
                },
                {
                  "id": "ind27",
                  "name": "Ind. Tempest",
                  "type": "individual",
                  "position": {
                    "lat": 46.543599,
                    "lon": 7.977522,
                    "alt": 3424
                  },
                  "children": []
                },
                {
                  "id": "ind28",
                  "name": "Ind. Valkyrie",
                  "type": "individual",
                  "position": {
                    "lat": 46.54419,
                    "lon": 7.979471,
                    "alt": 3381
                  },
                  "children": []
                },
                {
                  "id": "ind29",
                  "name": "Ind. Warden",
                  "type": "individual",
                  "position": {
                    "lat": 46.54602,
                    "lon": 7.977525,
                    "alt": 3462
                  },
                  "children": []
                },
                {
                  "id": "ind30",
                  "name": "Ind. Apex",
                  "type": "individual",
                  "position": {
                    "lat": 46.543596,
                    "lon": 7.978704,
                    "alt": 3424
                  },
                  "children": []
                }
              ],
              "commander": {
                "id": "cmd28",
                "name": "Cmd. Panther"
              }
            },
            {
              "id": "sq7",
              "name": "7 Sqd",
              "type": "squad",
              "position": {
                "lat": 46.532,
                "lon": 8.005,
                "alt": 3074
              },
              "children": [
                {
                  "id": "ind31",
                  "name": "Ind. Fury",
                  "type": "individual",
                  "position": {
                    "lat": 46.531628,
                    "lon": 8.004113,
                    "alt": 3062
                  },
                  "children": []
                },
                {
                  "id": "ind32",
                  "name": "Ind. Grizzly",
                  "type": "individual",
                  "position": {
                    "lat": 46.532015,
                    "lon": 8.003914,
                    "alt": 3062
                  },
                  "children": []
                },
                {
                  "id": "ind33",
                  "name": "Ind. Hornet",
                  "type": "individual",
                  "position": {
                    "lat": 46.532818,
                    "lon": 8.004795,
                    "alt": 3074
                  },
                  "children": []
                },
                {
                  "id": "ind34",
                  "name": "Ind. Inferno",
                  "type": "individual",
                  "position": {
                    "lat": 46.532876,
                    "lon": 8.004981,
                    "alt": 3074
                  },
                  "children": []
                },
                {
                  "id": "ind35",
                  "name": "Ind. Jaguar",
                  "type": "individual",
                  "position": {
                    "lat": 46.531026,
                    "lon": 8.003936,
                    "alt": 3022
                  },
                  "children": []
                }
              ],
              "commander": {
                "id": "cmd31",
                "name": "Cmd. Bolt"
              }
            },
            {
              "id": "sq8",
              "name": "8 Sqd",
              "type": "squad",
              "position": {
                "lat": 46.542,
                "lon": 7.996,
                "alt": 3363
              },
              "children": [
                {
                  "id": "ind36",
                  "name": "Ind. De Neptune",
                  "type": "individual",
                  "position": {
                    "lat": 46.542524,
                    "lon": 7.99512,
                    "alt": 3363
                  },
                  "children": []
                },
                {
                  "id": "ind37",
                  "name": "Ind. Odin",
                  "type": "individual",
                  "position": {
                    "lat": 46.541224,
                    "lon": 7.994905,
                    "alt": 3277
                  },
                  "children": []
                },
                {
                  "id": "ind38",
                  "name": "Ind. Patriot",
                  "type": "individual",
                  "position": {
                    "lat": 46.542308,
                    "lon": 7.996166,
                    "alt": 3363
                  },
                  "children": []
                },
                {
                  "id": "ind39",
                  "name": "Ind. Razor",
                  "type": "individual",
                  "position": {
                    "lat": 46.543266,
                    "lon": 7.996065,
                    "alt": 3363
                  },
                  "children": []
                },
                {
                  "id": "ind40",
                  "name": "Ind. Sentinel",
                  "type": "individual",
                  "position": {
                    "lat": 46.54065,
                    "lon": 7.997373,
                    "alt": 3287
                  },
                  "children": []
                }
              ],
              "commander": {
                "id": "cmd34",
                "name": "Cmd. Kraken"
              }
            },
            {
              "id": "sq9",
              "name": "9 Sqd",
              "type": "squad",
              "position": {
                "lat": 46.536,
                "lon": 7.982,
                "alt": 3312
              },
              "children": [
                {
                  "id": "ind41",
                  "name": "Ind. Atlas",
                  "type": "individual",
                  "position": {
                    "lat": 46.535352,
                    "lon": 7.980641,
                    "alt": 3367
                  },
                  "children": []
                },
                {
                  "id": "ind42",
                  "name": "Ind. Bandit",
                  "type": "individual",
                  "position": {
                    "lat": 46.536636,
                    "lon": 7.982783,
                    "alt": 3312
                  },
                  "children": []
                },
                {
                  "id": "ind43",
                  "name": "Ind. Centurion",
                  "type": "individual",
                  "position": {
                    "lat": 46.537088,
                    "lon": 7.981867,
                    "alt": 3312
                  },
                  "children": []
                },
                {
                  "id": "ind44",
                  "name": "Ind. Draco",
                  "type": "individual",
                  "position": {
                    "lat": 46.536428,
                    "lon": 7.982023,
                    "alt": 3312
                  },
                  "children": []
                },
                {
                  "id": "ind45",
                  "name": "Ind. Enigma",
                  "type": "individual",
                  "position": {
                    "lat": 46.537057,
                    "lon": 7.980762,
                    "alt": 3363
                  },
                  "children": []
                }
              ],
              "commander": {
                "id": "cmd37",
                "name": "Cmd. Trident"
              }
            },
            {
              "id": "sq10",
              "name": "10 Sqd",
              "type": "squad",
              "position": {
                "lat": 46.529,
                "lon": 7.999,
                "alt": 2988
              },
              "children": [
                {
                  "id": "ind46",
                  "name": "Ind. Impulse",
                  "type": "individual",
                  "position": {
                    "lat": 46.530485,
                    "lon": 7.998135,
                    "alt": 3046
                  },
                  "children": []
                },
                {
                  "id": "ind47",
                  "name": "Ind. Jester",
                  "type": "individual",
                  "position": {
                    "lat": 46.529026,
                    "lon": 7.999359,
                    "alt": 2988
                  },
                  "children": []
                },
                {
                  "id": "ind48",
                  "name": "Ind. Kodiak",
                  "type": "individual",
                  "position": {
                    "lat": 46.529523,
                    "lon": 7.997975,
                    "alt": 3046
                  },
                  "children": []
                },
                {
                  "id": "ind49",
                  "name": "Ind. Lynx",
                  "type": "individual",
                  "position": {
                    "lat": 46.529988,
                    "lon": 7.998539,
                    "alt": 3046
                  },
                  "children": []
                },
                {
                  "id": "ind50",
                  "name": "Ind. Mantis",
                  "type": "individual",
                  "position": {
                    "lat": 46.529054,
                    "lon": 7.999787,
                    "alt": 2988
                  },
                  "children": []
                }
              ],
              "commander": {
                "id": "cmd40",
                "name": "Cmd. Forge"
              }
            }
          ],
          "commander": {
            "id": "cmd25",
            "name": "Cmd. Marshal"
          },
          "staff": [
            {
              "id": "staff26",
              "name": "Stf. Nitro",
              "position": {
                "lat": 46.538188,
                "lon": 7.990563,
                "alt": 3217
              }
            },
            {
              "id": "staff27",
              "name": "Stf. Onyx",
              "position": {
                "lat": 46.538104,
                "lon": 7.990125,
                "alt": 3217
              }
            }
          ]
        },
        {
          "id": "pl5",
          "name": "5 Plt",
          "type": "platoon",
          "position": {
            "lat": 46.539,
            "lon": 7.94,
            "alt": 3114
          },
          "children": [
            {
              "id": "sq21",
              "name": "21 Sqd",
              "type": "squad",
              "position": {
                "lat": 46.544,
                "lon": 7.93,
                "alt": 2510
              },
              "children": [
                {
                  "id": "ind51",
                  "name": "Ind. Umbra",
                  "type": "individual",
                  "position": {
                    "lat": 46.543956,
                    "lon": 7.929257,
                    "alt": 2510
                  },
                  "children": []
                },
                {
                  "id": "ind52",
                  "name": "Ind. Vertex",
                  "type": "individual",
                  "position": {
                    "lat": 46.542604,
                    "lon": 7.931085,
                    "alt": 2552
                  },
                  "children": []
                },
                {
                  "id": "ind53",
                  "name": "Ind. Wildfire",
                  "type": "individual",
                  "position": {
                    "lat": 46.543778,
                    "lon": 7.929255,
                    "alt": 2510
                  },
                  "children": []
                },
                {
                  "id": "ind54",
                  "name": "Ind. Arsenal",
                  "type": "individual",
                  "position": {
                    "lat": 46.542623,
                    "lon": 7.930498,
                    "alt": 2552
                  },
                  "children": []
                },
                {
                  "id": "ind55",
                  "name": "Ind. Breaker",
                  "type": "individual",
                  "position": {
                    "lat": 46.545203,
                    "lon": 7.93079,
                    "alt": 2510
                  },
                  "children": []
                }
              ],
              "commander": {
                "id": "cmd46",
                "name": "Cmd. Revenant"
              }
            },
            {
              "id": "sq22",
              "name": "22 Sqd",
              "type": "squad",
              "position": {
                "lat": 46.533,
                "lon": 7.947,
                "alt": 3135
              },
              "children": [
                {
                  "id": "ind56",
                  "name": "Ind. Firestorm",
                  "type": "individual",
                  "position": {
                    "lat": 46.53393,
                    "lon": 7.945661,
                    "alt": 3018
                  },
                  "children": []
                },
                {
                  "id": "ind57",
                  "name": "Ind. Goliath",
                  "type": "individual",
                  "position": {
                    "lat": 46.533147,
                    "lon": 7.946945,
                    "alt": 3135
                  },
                  "children": []
                },
                {
                  "id": "ind58",
                  "name": "Ind. Hydra",
                  "type": "individual",
                  "position": {
                    "lat": 46.532926,
                    "lon": 7.946852,
                    "alt": 3135
                  },
                  "children": []
                },
                {
                  "id": "ind59",
                  "name": "Ind. Icarus",
                  "type": "individual",
                  "position": {
                    "lat": 46.531549,
                    "lon": 7.947625,
                    "alt": 3135
                  },
                  "children": []
                },
                {
                  "id": "ind60",
                  "name": "Ind. Juggernaut",
                  "type": "individual",
                  "position": {
                    "lat": 46.533573,
                    "lon": 7.94605,
                    "alt": 3209
                  },
                  "children": []
                }
              ],
              "commander": {
                "id": "cmd49",
                "name": "Cmd. Corsair"
              }
            },
            {
              "id": "sq23",
              "name": "23 Sqd",
              "type": "squad",
              "position": {
                "lat": 46.541,
                "lon": 7.935,
                "alt": 2826
              },
              "children": [
                {
                  "id": "ind61",
                  "name": "Ind. Nova",
                  "type": "individual",
                  "position": {
                    "lat": 46.541677,
                    "lon": 7.936293,
                    "alt": 3122
                  },
                  "children": []
                },
                {
                  "id": "ind62",
                  "name": "Ind. Orion",
                  "type": "individual",
                  "position": {
                    "lat": 46.541354,
                    "lon": 7.936208,
                    "alt": 2965
                  },
                  "children": []
                },
                {
                  "id": "ind63",
                  "name": "Ind. Phantom",
                  "type": "individual",
                  "position": {
                    "lat": 46.539637,
                    "lon": 7.935202,
                    "alt": 2826
                  },
                  "children": []
                },
                {
                  "id": "ind64",
                  "name": "Ind. Quicksilver",
                  "type": "individual",
                  "position": {
                    "lat": 46.540826,
                    "lon": 7.934905,
                    "alt": 2826
                  },
                  "children": []
                },
                {
                  "id": "ind65",
                  "name": "Ind. Ronin",
                  "type": "individual",
                  "position": {
                    "lat": 46.539864,
                    "lon": 7.935645,
                    "alt": 2965
                  },
                  "children": []
                }
              ],
              "commander": {
                "id": "cmd52",
                "name": "Cmd. Kestrel"
              }
            },
            {
              "id": "sq24",
              "name": "24 Sqd",
              "type": "squad",
              "position": {
                "lat": 46.536,
                "lon": 7.952,
                "alt": 3506
              },
              "children": [
                {
                  "id": "ind66",
                  "name": "Ind. Viking",
                  "type": "individual",
                  "position": {
                    "lat": 46.537337,
                    "lon": 7.952999,
                    "alt": 3670
                  },
                  "children": []
                },
                {
                  "id": "ind67",
                  "name": "Ind. Wolverine",
                  "type": "individual",
                  "position": {
                    "lat": 46.534525,
                    "lon": 7.953231,
                    "alt": 3579
                  },
                  "children": []
                },
                {
                  "id": "ind68",
                  "name": "Ind. Xenon",
                  "type": "individual",
                  "position": {
                    "lat": 46.536048,
                    "lon": 7.95196,
                    "alt": 3506
                  },
                  "children": []
                },
                {
                  "id": "ind69",
                  "name": "Ind. Yeti",
                  "type": "individual",
                  "position": {
                    "lat": 46.536165,
                    "lon": 7.95233,
                    "alt": 3670
                  },
                  "children": []
                },
                {
                  "id": "ind70",
                  "name": "Ind. Zenith",
                  "type": "individual",
                  "position": {
                    "lat": 46.536493,
                    "lon": 7.953453,
                    "alt": 3670
                  },
                  "children": []
                }
              ],
              "commander": {
                "id": "cmd55",
                "name": "Cmd. Scorpion"
              }
            },
            {
              "id": "sq25",
              "name": "25 Sqd",
              "type": "squad",
              "position": {
                "lat": 46.547,
                "lon": 7.942,
                "alt": 3027
              },
              "children": [
                {
                  "id": "ind71",
                  "name": "Ind. Dominator",
                  "type": "individual",
                  "position": {
                    "lat": 46.548401,
                    "lon": 7.942935,
                    "alt": 2830
                  },
                  "children": []
                },
                {
                  "id": "ind72",
                  "name": "Ind. Enforcer",
                  "type": "individual",
                  "position": {
                    "lat": 46.547934,
                    "lon": 7.940978,
                    "alt": 2730
                  },
                  "children": []
                },
                {
                  "id": "ind73",
                  "name": "Ind. Foxhound",
                  "type": "individual",
                  "position": {
                    "lat": 46.548479,
                    "lon": 7.940604,
                    "alt": 2730
                  },
                  "children": []
                },
                {
                  "id": "ind74",
                  "name": "Ind. Gunner",
                  "type": "individual",
                  "position": {
                    "lat": 46.548123,
                    "lon": 7.942538,
                    "alt": 2830
                  },
                  "children": []
                },
                {
                  "id": "ind75",
                  "name": "Ind. Hercules",
                  "type": "individual",
                  "position": {
                    "lat": 46.546483,
                    "lon": 7.943022,
                    "alt": 3027
                  },
                  "children": []
                }
              ],
              "commander": {
                "id": "cmd58",
                "name": "Cmd. Ace"
              }
            }
          ],
          "commander": {
            "id": "cmd43",
            "name": "Cmd. Nemesis"
          },
          "staff": [
            {
              "id": "staff44",
              "name": "Stf. Outlaw",
              "position": {
                "lat": 46.5387,
                "lon": 7.941233,
                "alt": 3114
              }
            },
            {
              "id": "staff45",
              "name": "Stf. Phalanx",
              "position": {
                "lat": 46.538428,
                "lon": 7.94101,
                "alt": 3114
              }
            }
          ]
        }
      ],
      "commander": {
        "id": "cmd4",
        "name": "Cmd. Ghost"
      },
      "staff": [
        {
          "id": "staff5",
          "name": "Stf. Shadow",
          "position": {
            "lat": 46.553245,
            "lon": 7.965713,
            "alt": 2837
          }
        },
        {
          "id": "staff6",
          "name": "M.llo Phoenix",
          "position": {
            "lat": 46.553123,
            "lon": 7.965294,
            "alt": 2837
          }
        }
      ]
    },
    {
      "id": "co2",
      "name": "B Co",
      "type": "company",
      "position": {
        "lat": 46.591,
        "lon": 8.052,
        "alt": 1716
      },
      "children": [
        {
          "id": "pl3",
          "name": "3 Plt",
          "type": "platoon",
          "position": {
            "lat": 46.617,
            "lon": 8.052,
            "alt": 1151
          },
          "children": [
            {
              "id": "sq11",
              "name": "11 Sqd",
              "type": "squad",
              "position": {
                "lat": 46.613,
                "lon": 8.039,
                "alt": 1009
              },
              "children": [
                {
                  "id": "ind76",
                  "name": "Ind. Sledgehammer",
                  "type": "individual",
                  "position": {
                    "lat": 46.614269,
                    "lon": 8.039467,
                    "alt": 1009
                  },
                  "children": []
                },
                {
                  "id": "ind77",
                  "name": "Ind. Tomahawk",
                  "type": "individual",
                  "position": {
                    "lat": 46.611968,
                    "lon": 8.038623,
                    "alt": 1161
                  },
                  "children": []
                },
                {
                  "id": "ind78",
                  "name": "Ind. Venom",
                  "type": "individual",
                  "position": {
                    "lat": 46.611651,
                    "lon": 8.037914,
                    "alt": 1161
                  },
                  "children": []
                },
                {
                  "id": "ind79",
                  "name": "Ind. Warlock",
                  "type": "individual",
                  "position": {
                    "lat": 46.613363,
                    "lon": 8.038623,
                    "alt": 1009
                  },
                  "children": []
                },
                {
                  "id": "ind80",
                  "name": "Ind. Ares",
                  "type": "individual",
                  "position": {
                    "lat": 46.614423,
                    "lon": 8.038729,
                    "alt": 1009
                  },
                  "children": []
                }
              ],
              "commander": {
                "id": "cmd67",
                "name": "Cmd. Overlord"
              }
            },
            {
              "id": "sq12",
              "name": "12 Sqd",
              "type": "squad",
              "position": {
                "lat": 46.623,
                "lon": 8.063,
                "alt": 1194
              },
              "children": [
                {
                  "id": "ind81",
                  "name": "Ind. Raptor",
                  "type": "individual",
                  "position": {
                    "lat": 46.623718,
                    "lon": 8.061548,
                    "alt": 1182
                  },
                  "children": []
                },
                {
                  "id": "ind82",
                  "name": "Ind. Ghost",
                  "type": "individual",
                  "position": {
                    "lat": 46.624126,
                    "lon": 8.062263,
                    "alt": 1182
                  },
                  "children": []
                },
                {
                  "id": "ind83",
                  "name": "Ind. Shadow",
                  "type": "individual",
                  "position": {
                    "lat": 46.624198,
                    "lon": 8.062901,
                    "alt": 1194
                  },
                  "children": []
                },
                {
                  "id": "ind84",
                  "name": "Ind. Phoenix",
                  "type": "individual",
                  "position": {
                    "lat": 46.624026,
                    "lon": 8.063394,
                    "alt": 1194
                  },
                  "children": []
                },
                {
                  "id": "ind85",
                  "name": "Ind. Thunder",
                  "type": "individual",
                  "position": {
                    "lat": 46.622894,
                    "lon": 8.063088,
                    "alt": 1292
                  },
                  "children": []
                }
              ],
              "commander": {
                "id": "cmd70",
                "name": "Cmd. Bulldog"
              }
            },
            {
              "id": "sq13",
              "name": "13 Sqd",
              "type": "squad",
              "position": {
                "lat": 46.619,
                "lon": 8.046,
                "alt": 982
              },
              "children": [
                {
                  "id": "ind86",
                  "name": "Ind. Hawk",
                  "type": "individual",
                  "position": {
                    "lat": 46.618018,
                    "lon": 8.046284,
                    "alt": 1014
                  },
                  "children": []
                },
                {
                  "id": "ind87",
                  "name": "Ind. Reaper",
                  "type": "individual",
                  "position": {
                    "lat": 46.619432,
                    "lon": 8.046886,
                    "alt": 982
                  },
                  "children": []
                },
                {
                  "id": "ind88",
                  "name": "Ind. Spartan",
                  "type": "individual",
                  "position": {
                    "lat": 46.619289,
                    "lon": 8.047004,
                    "alt": 982
                  },
                  "children": []
                },
                {
                  "id": "ind89",
                  "name": "Ind. De Titan",
                  "type": "individual",
                  "position": {
                    "lat": 46.619267,
                    "lon": 8.045007,
                    "alt": 977
                  },
                  "children": []
                },
                {
                  "id": "ind90",
                  "name": "Ind. Nomad",
                  "type": "individual",
                  "position": {
                    "lat": 46.618044,
                    "lon": 8.046538,
                    "alt": 1014
                  },
                  "children": []
                }
              ],
              "commander": {
                "id": "cmd73",
                "name": "Cmd. Eagle"
              }
            },
            {
              "id": "sq14",
              "name": "14 Sqd",
              "type": "squad",
              "position": {
                "lat": 46.611,
                "lon": 8.059,
                "alt": 2027
              },
              "children": [
                {
                  "id": "ind91",
                  "name": "Ind. Maverick",
                  "type": "individual",
                  "position": {
                    "lat": 46.6112,
                    "lon": 8.05914,
                    "alt": 2027
                  },
                  "children": []
                },
                {
                  "id": "ind92",
                  "name": "Ind. Rogue",
                  "type": "individual",
                  "position": {
                    "lat": 46.612188,
                    "lon": 8.059815,
                    "alt": 2027
                  },
                  "children": []
                },
                {
                  "id": "ind93",
                  "name": "Ind. Sabre",
                  "type": "individual",
                  "position": {
                    "lat": 46.609681,
                    "lon": 8.057787,
                    "alt": 1825
                  },
                  "children": []
                },
                {
                  "id": "ind94",
                  "name": "Ind. Talon",
                  "type": "individual",
                  "position": {
                    "lat": 46.6095,
                    "lon": 8.057604,
                    "alt": 1825
                  },
                  "children": []
                },
                {
                  "id": "ind95",
                  "name": "Ind. Bravo",
                  "type": "individual",
                  "position": {
                    "lat": 46.609672,
                    "lon": 8.059735,
                    "alt": 2013
                  },
                  "children": []
                }
              ],
              "commander": {
                "id": "cmd76",
                "name": "Cmd. Striker"
              }
            },
            {
              "id": "sq15",
              "name": "15 Sqd",
              "type": "squad",
              "position": {
                "lat": 46.626,
                "lon": 8.042,
                "alt": 1096
              },
              "children": [
                {
                  "id": "ind96",
                  "name": "Ind. Echo",
                  "type": "individual",
                  "position": {
                    "lat": 46.624505,
                    "lon": 8.041717,
                    "alt": 1046
                  },
                  "children": []
                },
                {
                  "id": "ind97",
                  "name": "Ind. Foxtrot",
                  "type": "individual",
                  "position": {
                    "lat": 46.625537,
                    "lon": 8.041095,
                    "alt": 1109
                  },
                  "children": []
                },
                {
                  "id": "ind98",
                  "name": "Ind. Kilo",
                  "type": "individual",
                  "position": {
                    "lat": 46.626458,
                    "lon": 8.04065,
                    "alt": 1109
                  },
                  "children": []
                },
                {
                  "id": "ind99",
                  "name": "Ind. Lima",
                  "type": "individual",
                  "position": {
                    "lat": 46.626269,
                    "lon": 8.043053,
                    "alt": 1096
                  },
                  "children": []
                },
                {
                  "id": "ind100",
                  "name": "Ind. Oscar",
                  "type": "individual",
                  "position": {
                    "lat": 46.625745,
                    "lon": 8.042264,
                    "alt": 1096
                  },
                  "children": []
                }
              ],
              "commander": {
                "id": "cmd79",
                "name": "Cmd. Sierra"
              }
            }
          ],
          "commander": {
            "id": "cmd64",
            "name": "Cmd. Longbow"
          },
          "staff": [
            {
              "id": "staff65",
              "name": "Stf. Mongoose",
              "position": {
                "lat": 46.616591,
                "lon": 8.053167,
                "alt": 1245
              }
            },
            {
              "id": "staff66",
              "name": "Stf. Nighthawk",
              "position": {
                "lat": 46.616342,
                "lon": 8.052894,
                "alt": 1245
              }
            }
          ]
        },
        {
          "id": "pl4",
          "name": "4 Plt",
          "type": "platoon",
          "position": {
            "lat": 46.578,
            "lon": 8.074,
            "alt": 2315
          },
          "children": [
            {
              "id": "sq16",
              "name": "16 Sqd",
              "type": "squad",
              "position": {
                "lat": 46.583,
                "lon": 8.061,
                "alt": 1838
              },
              "children": [
                {
                  "id": "ind101",
                  "name": "Ind. Archer",
                  "type": "individual",
                  "position": {
                    "lat": 46.583271,
                    "lon": 8.060084,
                    "alt": 1871
                  },
                  "children": []
                },
                {
                  "id": "ind102",
                  "name": "Ind. Bishop",
                  "type": "individual",
                  "position": {
                    "lat": 46.583622,
                    "lon": 8.061698,
                    "alt": 1742
                  },
                  "children": []
                },
                {
                  "id": "ind103",
                  "name": "Ind. Castle",
                  "type": "individual",
                  "position": {
                    "lat": 46.58427,
                    "lon": 8.06233,
                    "alt": 1742
                  },
                  "children": []
                },
                {
                  "id": "ind104",
                  "name": "Ind. Dagger",
                  "type": "individual",
                  "position": {
                    "lat": 46.583289,
                    "lon": 8.060515,
                    "alt": 1838
                  },
                  "children": []
                },
                {
                  "id": "ind105",
                  "name": "Ind. Ember",
                  "type": "individual",
                  "position": {
                    "lat": 46.584437,
                    "lon": 8.062174,
                    "alt": 1742
                  },
                  "children": []
                }
              ],
              "commander": {
                "id": "cmd85",
                "name": "Cmd. Whiskey"
              }
            },
            {
              "id": "sq17",
              "name": "17 Sqd",
              "type": "squad",
              "position": {
                "lat": 46.573,
                "lon": 8.089,
                "alt": 2559
              },
              "children": [
                {
                  "id": "ind106",
                  "name": "Ind. Iron",
                  "type": "individual",
                  "position": {
                    "lat": 46.57253,
                    "lon": 8.090228,
                    "alt": 2588
                  },
                  "children": []
                },
                {
                  "id": "ind107",
                  "name": "Ind. Javelin",
                  "type": "individual",
                  "position": {
                    "lat": 46.574252,
                    "lon": 8.0882,
                    "alt": 2559
                  },
                  "children": []
                },
                {
                  "id": "ind108",
                  "name": "Ind. Knight",
                  "type": "individual",
                  "position": {
                    "lat": 46.57246,
                    "lon": 8.090448,
                    "alt": 2588
                  },
                  "children": []
                },
                {
                  "id": "ind109",
                  "name": "Ind. Lancer",
                  "type": "individual",
                  "position": {
                    "lat": 46.574428,
                    "lon": 8.087564,
                    "alt": 2559
                  },
                  "children": []
                },
                {
                  "id": "ind110",
                  "name": "Ind. Marshal",
                  "type": "individual",
                  "position": {
                    "lat": 46.57331,
                    "lon": 8.090466,
                    "alt": 2505
                  },
                  "children": []
                }
              ],
              "commander": {
                "id": "cmd88",
                "name": "Cmd. Flint"
              }
            },
            {
              "id": "sq18",
              "name": "18 Sqd",
              "type": "squad",
              "position": {
                "lat": 46.581,
                "lon": 8.078,
                "alt": 2188
              },
              "children": [
                {
                  "id": "ind111",
                  "name": "Ind. De Quartz",
                  "type": "individual",
                  "position": {
                    "lat": 46.58239,
                    "lon": 8.077172,
                    "alt": 2062
                  },
                  "children": []
                },
                {
                  "id": "ind112",
                  "name": "Ind. De Raven",
                  "type": "individual",
                  "position": {
                    "lat": 46.580419,
                    "lon": 8.078037,
                    "alt": 2188
                  },
                  "children": []
                },
                {
                  "id": "ind113",
                  "name": "Ind. Storm",
                  "type": "individual",
                  "position": {
                    "lat": 46.580151,
                    "lon": 8.077363,
                    "alt": 2188
                  },
                  "children": []
                },
                {
                  "id": "ind114",
                  "name": "Ind. Tempest",
                  "type": "individual",
                  "position": {
                    "lat": 46.581381,
                    "lon": 8.077448,
                    "alt": 2062
                  },
                  "children": []
                },
                {
                  "id": "ind115",
                  "name": "Ind. Valkyrie",
                  "type": "individual",
                  "position": {
                    "lat": 46.580594,
                    "lon": 8.077838,
                    "alt": 2188
                  },
                  "children": []
                }
              ],
              "commander": {
                "id": "cmd91",
                "name": "Cmd. Nitro"
              }
            },
            {
              "id": "sq19",
              "name": "19 Sqd",
              "type": "squad",
              "position": {
                "lat": 46.576,
                "lon": 8.066,
                "alt": 2278
              },
              "children": [
                {
                  "id": "ind116",
                  "name": "Ind. Cipher",
                  "type": "individual",
                  "position": {
                    "lat": 46.576211,
                    "lon": 8.067199,
                    "alt": 2345
                  },
                  "children": []
                },
                {
                  "id": "ind117",
                  "name": "Ind. Drake",
                  "type": "individual",
                  "position": {
                    "lat": 46.576122,
                    "lon": 8.067166,
                    "alt": 2345
                  },
                  "children": []
                },
                {
                  "id": "ind118",
                  "name": "Ind. Fury",
                  "type": "individual",
                  "position": {
                    "lat": 46.577063,
                    "lon": 8.065831,
                    "alt": 2278
                  },
                  "children": []
                },
                {
                  "id": "ind119",
                  "name": "Ind. Grizzly",
                  "type": "individual",
                  "position": {
                    "lat": 46.575865,
                    "lon": 8.066264,
                    "alt": 2278
                  },
                  "children": []
                },
                {
                  "id": "ind120",
                  "name": "Ind. Hornet",
                  "type": "individual",
                  "position": {
                    "lat": 46.576377,
                    "lon": 8.065726,
                    "alt": 2278
                  },
                  "children": []
                }
              ],
              "commander": {
                "id": "cmd94",
                "name": "Cmd. Warden"
              }
            },
            {
              "id": "sq20",
              "name": "20 Sqd",
              "type": "squad",
              "position": {
                "lat": 46.585,
                "lon": 8.084,
                "alt": 2009
              },
              "children": [
                {
                  "id": "ind121",
                  "name": "Ind. Legion",
                  "type": "individual",
                  "position": {
                    "lat": 46.583516,
                    "lon": 8.08463,
                    "alt": 2009
                  },
                  "children": []
                },
                {
                  "id": "ind122",
                  "name": "Ind. Mirage",
                  "type": "individual",
                  "position": {
                    "lat": 46.58448,
                    "lon": 8.082557,
                    "alt": 1940
                  },
                  "children": []
                },
                {
                  "id": "ind123",
                  "name": "Ind. Neptune",
                  "type": "individual",
                  "position": {
                    "lat": 46.585447,
                    "lon": 8.083343,
                    "alt": 1939
                  },
                  "children": []
                },
                {
                  "id": "ind124",
                  "name": "Ind. Odin",
                  "type": "individual",
                  "position": {
                    "lat": 46.584879,
                    "lon": 8.084599,
                    "alt": 2009
                  },
                  "children": []
                },
                {
                  "id": "ind125",
                  "name": "Ind. Patriot",
                  "type": "individual",
                  "position": {
                    "lat": 46.585625,
                    "lon": 8.083146,
                    "alt": 1890
                  },
                  "children": []
                }
              ],
              "commander": {
                "id": "cmd97",
                "name": "Cmd. Inferno"
              }
            }
          ],
          "commander": {
            "id": "cmd82",
            "name": "Cmd. Papa"
          },
          "staff": [
            {
              "id": "staff83",
              "name": "Stf. Quebec",
              "position": {
                "lat": 46.578278,
                "lon": 8.075245,
                "alt": 2327
              }
            },
            {
              "id": "staff84",
              "name": "Stf. Romeo",
              "position": {
                "lat": 46.577969,
                "lon": 8.075309,
                "alt": 2327
              }
            }
          ]
        },
        {
          "id": "pl6",
          "name": "6 Plt",
          "type": "platoon",
          "position": {
            "lat": 46.578,
            "lon": 8.03,
            "alt": 2735
          },
          "children": [
            {
              "id": "sq26",
              "name": "26 Sqd",
              "type": "squad",
              "position": {
                "lat": 46.583,
                "lon": 8.024,
                "alt": 3159
              },
              "children": [
                {
                  "id": "ind126",
                  "name": "Ind. Bandit",
                  "type": "individual",
                  "position": {
                    "lat": 46.583362,
                    "lon": 8.023521,
                    "alt": 3254
                  },
                  "children": []
                },
                {
                  "id": "ind127",
                  "name": "Ind. Centurion",
                  "type": "individual",
                  "position": {
                    "lat": 46.583348,
                    "lon": 8.023903,
                    "alt": 3254
                  },
                  "children": []
                },
                {
                  "id": "ind128",
                  "name": "Ind. Draco",
                  "type": "individual",
                  "position": {
                    "lat": 46.581753,
                    "lon": 8.023098,
                    "alt": 3159
                  },
                  "children": []
                },
                {
                  "id": "ind129",
                  "name": "Ind. Enigma",
                  "type": "individual",
                  "position": {
                    "lat": 46.584154,
                    "lon": 8.025075,
                    "alt": 3199
                  },
                  "children": []
                },
                {
                  "id": "ind130",
                  "name": "Ind. Forge",
                  "type": "individual",
                  "position": {
                    "lat": 46.582897,
                    "lon": 8.023023,
                    "alt": 3159
                  },
                  "children": []
                }
              ],
              "commander": {
                "id": "cmd103",
                "name": "Cmd. Vanguard"
              }
            },
            {
              "id": "sq27",
              "name": "27 Sqd",
              "type": "squad",
              "position": {
                "lat": 46.574,
                "lon": 8.037,
                "alt": 2649
              },
              "children": [
                {
                  "id": "ind131",
                  "name": "Ind. Jester",
                  "type": "individual",
                  "position": {
                    "lat": 46.574336,
                    "lon": 8.037756,
                    "alt": 2622
                  },
                  "children": []
                },
                {
                  "id": "ind132",
                  "name": "Ind. Kodiak",
                  "type": "individual",
                  "position": {
                    "lat": 46.573716,
                    "lon": 8.036628,
                    "alt": 2649
                  },
                  "children": []
                },
                {
                  "id": "ind133",
                  "name": "Ind. Lynx",
                  "type": "individual",
                  "position": {
                    "lat": 46.575205,
                    "lon": 8.03722,
                    "alt": 2629
                  },
                  "children": []
                },
                {
                  "id": "ind134",
                  "name": "Ind. Mantis",
                  "type": "individual",
                  "position": {
                    "lat": 46.572604,
                    "lon": 8.038072,
                    "alt": 2613
                  },
                  "children": []
                },
                {
                  "id": "ind135",
                  "name": "Ind. Nemesis",
                  "type": "individual",
                  "position": {
                    "lat": 46.574104,
                    "lon": 8.037068,
                    "alt": 2649
                  },
                  "children": []
                }
              ],
              "commander": {
                "id": "cmd106",
                "name": "Cmd. Gladius"
              }
            },
            {
              "id": "sq28",
              "name": "28 Sqd",
              "type": "squad",
              "position": {
                "lat": 46.58,
                "lon": 8.028,
                "alt": 2943
              },
              "children": [
                {
                  "id": "ind136",
                  "name": "Ind. Spectre",
                  "type": "individual",
                  "position": {
                    "lat": 46.581428,
                    "lon": 8.028078,
                    "alt": 2943
                  },
                  "children": []
                },
                {
                  "id": "ind137",
                  "name": "Ind. Torque",
                  "type": "individual",
                  "position": {
                    "lat": 46.580073,
                    "lon": 8.029202,
                    "alt": 2940
                  },
                  "children": []
                },
                {
                  "id": "ind138",
                  "name": "Ind. Umbra",
                  "type": "individual",
                  "position": {
                    "lat": 46.578764,
                    "lon": 8.027176,
                    "alt": 2749
                  },
                  "children": []
                },
                {
                  "id": "ind139",
                  "name": "Ind. De Vertex",
                  "type": "individual",
                  "position": {
                    "lat": 46.579664,
                    "lon": 8.02861,
                    "alt": 2943
                  },
                  "children": []
                },
                {
                  "id": "ind140",
                  "name": "Ind. Wildfire",
                  "type": "individual",
                  "position": {
                    "lat": 46.579822,
                    "lon": 8.027473,
                    "alt": 2943
                  },
                  "children": []
                }
              ],
              "commander": {
                "id": "cmd109",
                "name": "Cmd. Outlaw"
              }
            },
            {
              "id": "sq29",
              "name": "29 Sqd",
              "type": "squad",
              "position": {
                "lat": 46.576,
                "lon": 8.042,
                "alt": 2553
              },
              "children": [
                {
                  "id": "ind141",
                  "name": "Ind. Dynamo",
                  "type": "individual",
                  "position": {
                    "lat": 46.575508,
                    "lon": 8.042435,
                    "alt": 2553
                  },
                  "children": []
                },
                {
                  "id": "ind142",
                  "name": "Ind. Eclipse",
                  "type": "individual",
                  "position": {
                    "lat": 46.577144,
                    "lon": 8.041215,
                    "alt": 2567
                  },
                  "children": []
                },
                {
                  "id": "ind143",
                  "name": "Ind. Firestorm",
                  "type": "individual",
                  "position": {
                    "lat": 46.575977,
                    "lon": 8.04205,
                    "alt": 2553
                  },
                  "children": []
                },
                {
                  "id": "ind144",
                  "name": "Ind. Goliath",
                  "type": "individual",
                  "position": {
                    "lat": 46.576215,
                    "lon": 8.041726,
                    "alt": 2553
                  },
                  "children": []
                },
                {
                  "id": "ind145",
                  "name": "Ind. Hydra",
                  "type": "individual",
                  "position": {
                    "lat": 46.575165,
                    "lon": 8.041787,
                    "alt": 2553
                  },
                  "children": []
                }
              ],
              "commander": {
                "id": "cmd112",
                "name": "Cmd. Arsenal"
              }
            },
            {
              "id": "sq30",
              "name": "30 Sqd",
              "type": "squad",
              "position": {
                "lat": 46.585,
                "lon": 8.032,
                "alt": 2815
              },
              "children": [
                {
                  "id": "ind146",
                  "name": "Ind. Leopard",
                  "type": "individual",
                  "position": {
                    "lat": 46.583964,
                    "lon": 8.030645,
                    "alt": 2850
                  },
                  "children": []
                },
                {
                  "id": "ind147",
                  "name": "Ind. Mustang",
                  "type": "individual",
                  "position": {
                    "lat": 46.584517,
                    "lon": 8.032797,
                    "alt": 2815
                  },
                  "children": []
                },
                {
                  "id": "ind148",
                  "name": "Ind. Nova",
                  "type": "individual",
                  "position": {
                    "lat": 46.584854,
                    "lon": 8.031637,
                    "alt": 2815
                  },
                  "children": []
                },
                {
                  "id": "ind149",
                  "name": "Ind. Orion",
                  "type": "individual",
                  "position": {
                    "lat": 46.585678,
                    "lon": 8.031816,
                    "alt": 2798
                  },
                  "children": []
                },
                {
                  "id": "ind150",
                  "name": "Ind. Phantom",
                  "type": "individual",
                  "position": {
                    "lat": 46.585748,
                    "lon": 8.031375,
                    "alt": 2798
                  },
                  "children": []
                }
              ],
              "commander": {
                "id": "cmd115",
                "name": "Cmd. Icarus"
              }
            }
          ],
          "commander": {
            "id": "cmd100",
            "name": "Cmd. Razor"
          },
          "staff": [
            {
              "id": "staff101",
              "name": "Stf. Sentinel",
              "position": {
                "lat": 46.578802,
                "lon": 8.030594,
                "alt": 2735
              }
            },
            {
              "id": "staff102",
              "name": "Stf. Trident",
              "position": {
                "lat": 46.578614,
                "lon": 8.030958,
                "alt": 2735
              }
            }
          ]
        }
      ],
      "commander": {
        "id": "cmd61",
        "name": "Cmd. Interceptor"
      },
      "staff": [
        {
          "id": "staff62",
          "name": "Stf. Jackal",
          "position": {
            "lat": 46.591387,
            "lon": 8.053182,
            "alt": 1638
          }
        },
        {
          "id": "staff63",
          "name": "M.llo Kingpin",
          "position": {
            "lat": 46.591086,
            "lon": 8.053304,
            "alt": 1638
          }
        }
      ]
    }
  ],
  "commander": {
    "id": "cmd1",
    "name": "Cmd. Viper"
  },
  "staff": [
    {
      "id": "staff2",
      "name": "Stf. Falcon",
      "position": {
        "lat": 46.571929,
        "lon": 8.011305,
        "alt": 3114
      }
    },
    {
      "id": "staff3",
      "name": "Stf. Raptor",
      "position": {
        "lat": 46.571627,
        "lon": 8.011191,
        "alt": 3114
      }
    }
  ]
        }
      ],
      "commander": {
        "id": "cmd_rgt1",
        "name": "Cmd. Centurion"
      },
      "staff": [
        {
          "id": "staff_rgt1",
          "name": "Stf. Condor",
          "position": {
            "lat": 46.575200,
            "lon": 8.010500,
            "alt": 2500
          }
        },
        {
          "id": "staff_rgt2",
          "name": "Stf. Harrier",
          "position": {
            "lat": 46.574800,
            "lon": 8.010500,
            "alt": 2500
          }
        }
      ]
    }
  ],
  "commander": {
    "id": "cmd_bde1",
    "name": "Cmd. Praetor"
  },
  "staff": [
    {
      "id": "staff_bde1",
      "name": "Stf. Monarch",
      "position": {
        "lat": 46.575400,
        "lon": 8.010800,
        "alt": 2500
      }
    },
    {
      "id": "staff_bde2",
      "name": "Stf. Sovereign",
      "position": {
        "lat": 46.574600,
        "lon": 8.010800,
        "alt": 2500
      }
    }
  ]
}
