{
  "id": "bde3641",
  "name": "1 Bde",
  "type": "brigade",
  "children": [
    {
      "id": "rgt1211",
      "name": "1 Rgt",
      "type": "regiment",
      "children": [
        {
          "id": "bn401",
          "name": "1 Bn",
          "type": "battalion",
          "children": [
            {
              "id": "co131",
              "name": "A Co",
              "type": "company",
              "children": [
                {
                  "id": "pl41",
                  "name": "1 Plt",
                  "type": "platoon",
                  "children": [
                    {
                      "id": "sq13",
                      "name": "1 Sqd",
                      "type": "squad",
                      "children": [
                        {
                          "id": "ind1",
                          "name": "Ind. Viper",
                          "type": "individual",
                          "position": {
                            "lat": 46.510102,
                            "lon": 8.099616,
                            "alt": 2475
                          },
                          "children": []
                        },
                        {
                          "id": "ind2",
                          "name": "Ind. Falcon",
                          "type": "individual",
                          "position": {
                            "lat": 46.509989,
                            "lon": 8.099627,
                            "alt": 2495
                          },
                          "children": []
                        },
                        {
                          "id": "ind3",
                          "name": "Ind. Raptor",
                          "type": "individual",
                          "position": {
                            "lat": 46.509891,
                            "lon": 8.099606,
                            "alt": 2457
                          },
                          "children": []
                        },
                        {
                          "id": "ind4",
                          "name": "Ind. Ghost",
                          "type": "individual",
                          "position": {
                            "lat": 46.509873,
                            "lon": 8.099411,
                            "alt": 2541
                          },
                          "children": []
                        },
                        {
                          "id": "ind5",
                          "name": "Ind. Shadow",
                          "type": "individual",
                          "position": {
                            "lat": 46.509702,
                            "lon": 8.099548,
                            "alt": 2523
                          },
                          "children": []
                        },
                        {
                          "id": "ind6",
                          "name": "Ind. Phoenix",
                          "type": "individual",
                          "position": {
                            "lat": 46.509713,
                            "lon": 8.09929,
                            "alt": 2469
                          },
                          "children": []
                        },
                        {
                          "id": "ind7",
                          "name": "Ind. Thunder",
                          "type": "individual",
                          "position": {
                            "lat": 46.509647,
                            "lon": 8.0992,
                            "alt": 2490
                          },
                          "children": []
                        },
                        {
                          "id": "ind8",
                          "name": "Ind. Eagle",
                          "type": "individual",
                          "position": {
                            "lat": 46.509504,
                            "lon": 8.099275,
                            "alt": 2453
                          },
                          "children": []
                        },
                        {
                          "id": "ind9",
                          "name": "Ind. Wolf",
                          "type": "individual",
                          "position": {
                            "lat": 46.509536,
                            "lon": 8.098974,
                            "alt": 2494
                          },
                          "children": []
                        },
                        {
                          "id": "ind10",
                          "name": "Ind. Cobra",
                          "type": "individual",
                          "position": {
                            "lat": 46.509333,
                            "lon": 8.099177,
                            "alt": 2473
                          },
                          "children": []
                        },
                        {
                          "id": "ind11",
                          "name": "Ind. Frost",
                          "type": "individual",
                          "position": {
                            "lat": 46.509298,
                            "lon": 8.09902,
                            "alt": 2521
                          },
                          "children": []
                        }
                      ],
                      "commander": {
                        "id": "cmd12",
                        "name": "Cmd. Delta",
                        "position": {
                          "lat": 46.509317,
                          "lon": 8.100141,
                          "alt": 2532
                        }
                      }
                    },
                    {
                      "id": "sq26",
                      "name": "2 Sqd",
                      "type": "squad",
                      "children": [
                        {
                          "id": "ind14",
                          "name": "Ind. Romeo",
                          "type": "individual",
                          "position": {
                            "lat": 46.509043,
                            "lon": 8.099293,
                            "alt": 2468
                          },
                          "children": []
                        },
                        {
                          "id": "ind15",
                          "name": "Ind. Ember",
                          "type": "individual",
                          "position": {
                            "lat": 46.509013,
                            "lon": 8.099129,
                            "alt": 2496
                          },
                          "children": []
                        },
                        {
                          "id": "ind16",
                          "name": "Ind. Marshal",
                          "type": "individual",
                          "position": {
                            "lat": 46.508966,
                            "lon": 8.098999,
                            "alt": 2494
                          },
                          "children": []
                        },
                        {
                          "id": "ind17",
                          "name": "Ind. Nitro",
                          "type": "individual",
                          "position": {
                            "lat": 46.508827,
                            "lon": 8.099062,
                            "alt": 2454
                          },
                          "children": []
                        },
                        {
                          "id": "ind18",
                          "name": "Ind. Onyx",
                          "type": "individual",
                          "position": {
                            "lat": 46.508868,
                            "lon": 8.098749,
                            "alt": 2488
                          },
                          "children": []
                        },
                        {
                          "id": "ind19",
                          "name": "Ind. Panther",
                          "type": "individual",
                          "position": {
                            "lat": 46.508719,
                            "lon": 8.098832,
                            "alt": 2516
                          },
                          "children": []
                        },
                        {
                          "id": "ind20",
                          "name": "Ind. Bolt",
                          "type": "individual",
                          "position": {
                            "lat": 46.508705,
                            "lon": 8.098633,
                            "alt": 2541
                          },
                          "children": []
                        },
                        {
                          "id": "ind21",
                          "name": "Ind. Kraken",
                          "type": "individual",
                          "position": {
                            "lat": 46.50858,
                            "lon": 8.098666,
                            "alt": 2545
                          },
                          "children": []
                        },
                        {
                          "id": "ind22",
                          "name": "Ind. Trident",
                          "type": "individual",
                          "position": {
                            "lat": 46.50855,
                            "lon": 8.098501,
                            "alt": 2521
                          },
                          "children": []
                        },
                        {
                          "id": "ind23",
                          "name": "Ind. Forge",
                          "type": "individual",
                          "position": {
                            "lat": 46.508445,
                            "lon": 8.098493,
                            "alt": 2487
                          },
                          "children": []
                        },
                        {
                          "id": "ind24",
                          "name": "Ind. Interceptor",
                          "type": "individual",
                          "position": {
                            "lat": 46.5083,
                            "lon": 8.098565,
                            "alt": 2540
                          },
                          "children": []
                        }
                      ],
                      "commander": {
                        "id": "cmd25",
                        "name": "Cmd. Jackal",
                        "position": {
                          "lat": 46.508452,
                          "lon": 8.099384,
                          "alt": 2535
                        }
                      }
                    },
                    {
                      "id": "sq39",
                      "name": "3 Sqd",
                      "type": "squad",
                      "children": [
                        {
                          "id": "ind27",
                          "name": "Ind. Longbow",
                          "type": "individual",
                          "position": {
                            "lat": 46.50809,
                            "lon": 8.098731,
                            "alt": 2516
                          },
                          "children": []
                        },
                        {
                          "id": "ind28",
                          "name": "Ind. Mongoose",
                          "type": "individual",
                          "position": {
                            "lat": 46.508004,
                            "lon": 8.098682,
                            "alt": 2513
                          },
                          "children": []
                        },
                        {
                          "id": "ind29",
                          "name": "Ind. Nighthawk",
                          "type": "individual",
                          "position": {
                            "lat": 46.50794,
                            "lon": 8.098588,
                            "alt": 2515
                          },
                          "children": []
                        },
                        {
                          "id": "ind30",
                          "name": "Ind. Papa",
                          "type": "individual",
                          "position": {
                            "lat": 46.507908,
                            "lon": 8.098432,
                            "alt": 2499
                          },
                          "children": []
                        },
                        {
                          "id": "ind31",
                          "name": "Ind. Quebec",
                          "type": "individual",
                          "position": {
                            "lat": 46.507796,
                            "lon": 8.098433,
                            "alt": 2481
                          },
                          "children": []
                        },
                        {
                          "id": "ind32",
                          "name": "Ind. Sierra",
                          "type": "individual",
                          "position": {
                            "lat": 46.507731,
                            "lon": 8.098343,
                            "alt": 2544
                          },
                          "children": []
                        },
                        {
                          "id": "ind33",
                          "name": "Ind. Whiskey",
                          "type": "individual",
                          "position": {
                            "lat": 46.507626,
                            "lon": 8.098329,
                            "alt": 2461
                          },
                          "children": []
                        },
                        {
                          "id": "ind34",
                          "name": "Ind. Flint",
                          "type": "individual",
                          "position": {
                            "lat": 46.507504,
                            "lon": 8.09835,
                            "alt": 2514
                          },
                          "children": []
                        },
                        {
                          "id": "ind35",
                          "name": "Ind. Warden",
                          "type": "individual",
                          "position": {
                            "lat": 46.507559,
                            "lon": 8.098023,
                            "alt": 2495
                          },
                          "children": []
                        },
                        {
                          "id": "ind36",
                          "name": "Ind. Inferno",
                          "type": "individual",
                          "position": {
                            "lat": 46.507341,
                            "lon": 8.098231,
                            "alt": 2510
                          },
                          "children": []
                        },
                        {
                          "id": "ind37",
                          "name": "Ind. Razor",
                          "type": "individual",
                          "position": {
                            "lat": 46.507404,
                            "lon": 8.09789,
                            "alt": 2489
                          },
                          "children": []
                        }
                      ],
                      "commander": {
                        "id": "cmd38",
                        "name": "Cmd. Sentinel",
                        "position": {
                          "lat": 46.507553,
                          "lon": 8.098691,
                          "alt": 2491
                        }
                      }
                    }
                  ],
                  "commander": {
                    "id": "cmd40",
                    "name": "Cmd. Vanguard",
                    "position": {
                      "lat": 46.508185,
                      "lon": 8.099935,
                      "alt": 2546
                    }
                  },
                  "staff": [
                    {
                      "id": "staff42",
                      "name": "Stf. Gladius",
                      "position": {
                        "lat": 46.508265,
                        "lon": 8.099803,
                        "alt": 2546
                      }
                    },
                    {
                      "id": "staff43",
                      "name": "Stf. Outlaw",
                      "position": {
                        "lat": 46.508317,
                        "lon": 8.100043,
                        "alt": 2546
                      }
                    }
                  ]
                },
                {
                  "id": "pl84",
                  "name": "2 Plt",
                  "type": "platoon",
                  "children": [
                    {
                      "id": "sq56",
                      "name": "4 Sqd",
                      "type": "squad",
                      "children": [
                        {
                          "id": "ind44",
                          "name": "Ind. Arsenal",
                          "type": "individual",
                          "position": {
                            "lat": 46.507475,
                            "lon": 8.097532,
                            "alt": 2528
                          },
                          "children": []
                        },
                        {
                          "id": "ind45",
                          "name": "Ind. Icarus",
                          "type": "individual",
                          "position": {
                            "lat": 46.507348,
                            "lon": 8.097555,
                            "alt": 2515
                          },
                          "children": []
                        },
                        {
                          "id": "ind46",
                          "name": "Ind. Nemesis",
                          "type": "individual",
                          "position": {
                            "lat": 46.507324,
                            "lon": 8.097389,
                            "alt": 2457
                          },
                          "children": []
                        },
                        {
                          "id": "ind47",
                          "name": "Ind. Corsair",
                          "type": "individual",
                          "position": {
                            "lat": 46.507322,
                            "lon": 8.097184,
                            "alt": 2490
                          },
                          "children": []
                        },
                        {
                          "id": "ind48",
                          "name": "Ind. Kestrel",
                          "type": "individual",
                          "position": {
                            "lat": 46.507178,
                            "lon": 8.097237,
                            "alt": 2542
                          },
                          "children": []
                        },
                        {
                          "id": "ind49",
                          "name": "Ind. Scorpion",
                          "type": "individual",
                          "position": {
                            "lat": 46.507157,
                            "lon": 8.097067,
                            "alt": 2531
                          },
                          "children": []
                        },
                        {
                          "id": "ind50",
                          "name": "Ind. Ace",
                          "type": "individual",
                          "position": {
                            "lat": 46.507136,
                            "lon": 8.096896,
                            "alt": 2508
                          },
                          "children": []
                        },
                        {
                          "id": "ind51",
                          "name": "Ind. Revenant",
                          "type": "individual",
                          "position": {
                            "lat": 46.507021,
                            "lon": 8.096898,
                            "alt": 2549
                          },
                          "children": []
                        },
                        {
                          "id": "ind52",
                          "name": "Ind. Praetor",
                          "type": "individual",
                          "position": {
                            "lat": 46.507008,
                            "lon": 8.096711,
                            "alt": 2540
                          },
                          "children": []
                        },
                        {
                          "id": "ind53",
                          "name": "Ind. Centurion",
                          "type": "individual",
                          "position": {
                            "lat": 46.506889,
                            "lon": 8.09672,
                            "alt": 2489
                          },
                          "children": []
                        },
                        {
                          "id": "ind54",
                          "name": "Ind. Condor",
                          "type": "individual",
                          "position": {
                            "lat": 46.50678,
                            "lon": 8.09671,
                            "alt": 2545
                          },
                          "children": []
                        }
                      ],
                      "commander": {
                        "id": "cmd55",
                        "name": "Cmd. Harrier",
                        "position": {
                          "lat": 46.506708,
                          "lon": 8.097887,
                          "alt": 2536
                        }
                      }
                    },
                    {
                      "id": "sq69",
                      "name": "5 Sqd",
                      "type": "squad",
                      "children": [
                        {
                          "id": "ind57",
                          "name": "Ind. Monarch",
                          "type": "individual",
                          "position": {
                            "lat": 46.506641,
                            "lon": 8.096684,
                            "alt": 2474
                          },
                          "children": []
                        },
                        {
                          "id": "ind58",
                          "name": "Ind. Sovereign",
                          "type": "individual",
                          "position": {
                            "lat": 46.506696,
                            "lon": 8.096394,
                            "alt": 2468
                          },
                          "children": []
                        },
                        {
                          "id": "ind59",
                          "name": "Ind. Sledgehammer",
                          "type": "individual",
                          "position": {
                            "lat": 46.506602,
                            "lon": 8.096352,
                            "alt": 2539
                          },
                          "children": []
                        },
                        {
                          "id": "ind60",
                          "name": "Ind. Tomahawk",
                          "type": "individual",
                          "position": {
                            "lat": 46.506591,
                            "lon": 8.096172,
                            "alt": 2516
                          },
                          "children": []
                        },
                        {
                          "id": "ind61",
                          "name": "Ind. Warlock",
                          "type": "individual",
                          "position": {
                            "lat": 46.506498,
                            "lon": 8.096128,
                            "alt": 2517
                          },
                          "children": []
                        },
                        {
                          "id": "ind62",
                          "name": "Ind. Ares",
                          "type": "individual",
                          "position": {
                            "lat": 46.506418,
                            "lon": 8.096065,
                            "alt": 2537
                          },
                          "children": []
                        },
                        {
                          "id": "ind63",
                          "name": "Ind. Raptor",
                          "type": "individual",
                          "position": {
                            "lat": 46.506224,
                            "lon": 8.096191,
                            "alt": 2457
                          },
                          "children": []
                        },
                        {
                          "id": "ind64",
                          "name": "Ind. Bulldog",
                          "type": "individual",
                          "position": {
                            "lat": 46.506205,
                            "lon": 8.096023,
                            "alt": 2517
                          },
                          "children": []
                        },
                        {
                          "id": "ind65",
                          "name": "Ind. Striker",
                          "type": "individual",
                          "position": {
                            "lat": 46.506248,
                            "lon": 8.095753,
                            "alt": 2534
                          },
                          "children": []
                        },
                        {
                          "id": "ind66",
                          "name": "Ind. Overlord",
                          "type": "individual",
                          "position": {
                            "lat": 46.506016,
                            "lon": 8.095943,
                            "alt": 2533
                          },
                          "children": []
                        },
                        {
                          "id": "ind67",
                          "name": "Ind. Sabre",
                          "type": "individual",
                          "position": {
                            "lat": 46.505972,
                            "lon": 8.095817,
                            "alt": 2464
                          },
                          "children": []
                        }
                      ],
                      "commander": {
                        "id": "cmd68",
                        "name": "Cmd. Talon",
                        "position": {
                          "lat": 46.505983,
                          "lon": 8.096793,
                          "alt": 2502
                        }
                      }
                    },
                    {
                      "id": "sq82",
                      "name": "6 Sqd",
                      "type": "squad",
                      "children": [
                        {
                          "id": "ind70",
                          "name": "Ind. Bravo",
                          "type": "individual",
                          "position": {
                            "lat": 46.505957,
                            "lon": 8.095618,
                            "alt": 2511
                          },
                          "children": []
                        },
                        {
                          "id": "ind71",
                          "name": "Ind. Spartan",
                          "type": "individual",
                          "position": {
                            "lat": 46.505757,
                            "lon": 8.095732,
                            "alt": 2455
                          },
                          "children": []
                        },
                        {
                          "id": "ind72",
                          "name": "Ind. Titan",
                          "type": "individual",
                          "position": {
                            "lat": 46.50581,
                            "lon": 8.095464,
                            "alt": 2521
                          },
                          "children": []
                        },
                        {
                          "id": "ind73",
                          "name": "Ind. Nomad",
                          "type": "individual",
                          "position": {
                            "lat": 46.505746,
                            "lon": 8.095372,
                            "alt": 2550
                          },
                          "children": []
                        },
                        {
                          "id": "ind74",
                          "name": "Ind. Blaze",
                          "type": "individual",
                          "position": {
                            "lat": 46.505564,
                            "lon": 8.09546,
                            "alt": 2543
                          },
                          "children": []
                        },
                        {
                          "id": "ind75",
                          "name": "Ind. Hammer",
                          "type": "individual",
                          "position": {
                            "lat": 46.505603,
                            "lon": 8.095214,
                            "alt": 2541
                          },
                          "children": []
                        },
                        {
                          "id": "ind76",
                          "name": "Ind. Iron",
                          "type": "individual",
                          "position": {
                            "lat": 46.50558,
                            "lon": 8.095059,
                            "alt": 2468
                          },
                          "children": []
                        },
                        {
                          "id": "ind77",
                          "name": "Ind. Javelin",
                          "type": "individual",
                          "position": {
                            "lat": 46.505464,
                            "lon": 8.095048,
                            "alt": 2497
                          },
                          "children": []
                        },
                        {
                          "id": "ind78",
                          "name": "Ind. Knight",
                          "type": "individual",
                          "position": {
                            "lat": 46.505317,
                            "lon": 8.095082,
                            "alt": 2483
                          },
                          "children": []
                        },
                        {
                          "id": "ind79",
                          "name": "Ind. Lancer",
                          "type": "individual",
                          "position": {
                            "lat": 46.505388,
                            "lon": 8.094787,
                            "alt": 2486
                          },
                          "children": []
                        },
                        {
                          "id": "ind80",
                          "name": "Ind. Storm",
                          "type": "individual",
                          "position": {
                            "lat": 46.505245,
                            "lon": 8.094816,
                            "alt": 2513
                          },
                          "children": []
                        }
                      ],
                      "commander": {
                        "id": "cmd81",
                        "name": "Cmd. Tempest",
                        "position": {
                          "lat": 46.505086,
                          "lon": 8.095997,
                          "alt": 2517
                        }
                      }
                    }
                  ],
                  "commander": {
                    "id": "cmd83",
                    "name": "Cmd. Valkyrie",
                    "position": {
                      "lat": 46.505782,
                      "lon": 8.097131,
                      "alt": 2506
                    }
                  },
                  "staff": [
                    {
                      "id": "staff85",
                      "name": "Stf. Apex",
                      "position": {
                        "lat": 46.505743,
                        "lon": 8.097286,
                        "alt": 2506
                      }
                    },
                    {
                      "id": "staff86",
                      "name": "Stf. Fury",
                      "position": {
                        "lat": 46.505733,
                        "lon": 8.096988,
                        "alt": 2506
                      }
                    }
                  ]
                },
                {
                  "id": "pl127",
                  "name": "3 Plt",
                  "type": "platoon",
                  "children": [
                    {
                      "id": "sq99",
                      "name": "7 Sqd",
                      "type": "squad",
                      "children": [
                        {
                          "id": "ind87",
                          "name": "Ind. Grizzly",
                          "type": "individual",
                          "position": {
                            "lat": 46.504967,
                            "lon": 8.095007,
                            "alt": 2539
                          },
                          "children": []
                        },
                        {
                          "id": "ind88",
                          "name": "Ind. Hornet",
                          "type": "individual",
                          "position": {
                            "lat": 46.504967,
                            "lon": 8.094829,
                            "alt": 2542
                          },
                          "children": []
                        },
                        {
                          "id": "ind89",
                          "name": "Ind. Inferno",
                          "type": "individual",
                          "position": {
                            "lat": 46.504815,
                            "lon": 8.094856,
                            "alt": 2467
                          },
                          "children": []
                        },
                        {
                          "id": "ind90",
                          "name": "Ind. Neptune",
                          "type": "individual",
                          "position": {
                            "lat": 46.504844,
                            "lon": 8.094639,
                            "alt": 2491
                          },
                          "children": []
                        },
                        {
                          "id": "ind91",
                          "name": "Ind. Odin",
                          "type": "individual",
                          "position": {
                            "lat": 46.504656,
                            "lon": 8.094715,
                            "alt": 2521
                          },
                          "children": []
                        },
                        {
                          "id": "ind92",
                          "name": "Ind. Patriot",
                          "type": "individual",
                          "position": {
                            "lat": 46.504779,
                            "lon": 8.094371,
                            "alt": 2493
                          },
                          "children": []
                        },
                        {
                          "id": "ind93",
                          "name": "Ind. Cipher",
                          "type": "individual",
                          "position": {
                            "lat": 46.504615,
                            "lon": 8.094416,
                            "alt": 2503
                          },
                          "children": []
                        },
                        {
                          "id": "ind94",
                          "name": "Ind. Drake",
                          "type": "individual",
                          "position": {
                            "lat": 46.504485,
                            "lon": 8.094413,
                            "alt": 2506
                          },
                          "children": []
                        },
                        {
                          "id": "ind95",
                          "name": "Ind. Legion",
                          "type": "individual",
                          "position": {
                            "lat": 46.504497,
                            "lon": 8.094219,
                            "alt": 2519
                          },
                          "children": []
                        },
                        {
                          "id": "ind96",
                          "name": "Ind. Mirage",
                          "type": "individual",
                          "position": {
                            "lat": 46.504351,
                            "lon": 8.094238,
                            "alt": 2511
                          },
                          "children": []
                        },
                        {
                          "id": "ind97",
                          "name": "Ind. Spectre",
                          "type": "individual",
                          "position": {
                            "lat": 46.504317,
                            "lon": 8.094106,
                            "alt": 2525
                          },
                          "children": []
                        }
                      ],
                      "commander": {
                        "id": "cmd98",
                        "name": "Cmd. Torque",
                        "position": {
                          "lat": 46.504483,
                          "lon": 8.094771,
                          "alt": 2475
                        }
                      }
                    },
                    {
                      "id": "sq112",
                      "name": "8 Sqd",
                      "type": "squad",
                      "children": [
                        {
                          "id": "ind100",
                          "name": "Ind. Dynamo",
                          "type": "individual",
                          "position": {
                            "lat": 46.504422,
                            "lon": 8.093724,
                            "alt": 2480
                          },
                          "children": []
                        },
                        {
                          "id": "ind101",
                          "name": "Ind. Eclipse",
                          "type": "individual",
                          "position": {
                            "lat": 46.504477,
                            "lon": 8.093492,
                            "alt": 2514
                          },
                          "children": []
                        },
                        {
                          "id": "ind102",
                          "name": "Ind. Goliath",
                          "type": "individual",
                          "position": {
                            "lat": 46.50443,
                            "lon": 8.09338,
                            "alt": 2530
                          },
                          "children": []
                        },
                        {
                          "id": "ind103",
                          "name": "Ind. Hydra",
                          "type": "individual",
                          "position": {
                            "lat": 46.504343,
                            "lon": 8.093314,
                            "alt": 2504
                          },
                          "children": []
                        },
                        {
                          "id": "ind104",
                          "name": "Ind. Leopard",
                          "type": "individual",
                          "position": {
                            "lat": 46.504315,
                            "lon": 8.09318,
                            "alt": 2527
                          },
                          "children": []
                        },
                        {
                          "id": "ind105",
                          "name": "Ind. Mustang",
                          "type": "individual",
                          "position": {
                            "lat": 46.504221,
                            "lon": 8.093122,
                            "alt": 2471
                          },
                          "children": []
                        },
                        {
                          "id": "ind106",
                          "name": "Ind. Nova",
                          "type": "individual",
                          "position": {
                            "lat": 46.504211,
                            "lon": 8.092967,
                            "alt": 2533
                          },
                          "children": []
                        },
                        {
                          "id": "ind107",
                          "name": "Ind. Orion",
                          "type": "individual",
                          "position": {
                            "lat": 46.504109,
                            "lon": 8.092919,
                            "alt": 2522
                          },
                          "children": []
                        },
                        {
                          "id": "ind108",
                          "name": "Ind. Phantom",
                          "type": "individual",
                          "position": {
                            "lat": 46.504076,
                            "lon": 8.092791,
                            "alt": 2477
                          },
                          "children": []
                        },
                        {
                          "id": "ind109",
                          "name": "Ind. Viking",
                          "type": "individual",
                          "position": {
                            "lat": 46.503985,
                            "lon": 8.09273,
                            "alt": 2514
                          },
                          "children": []
                        },
                        {
                          "id": "ind110",
                          "name": "Ind. Wolverine",
                          "type": "individual",
                          "position": {
                            "lat": 46.503818,
                            "lon": 8.092759,
                            "alt": 2530
                          },
                          "children": []
                        }
                      ],
                      "commander": {
                        "id": "cmd111",
                        "name": "Cmd. Zenith",
                        "position": {
                          "lat": 46.503936,
                          "lon": 8.093458,
                          "alt": 2468
                        }
                      }
                    },
                    {
                      "id": "sq125",
                      "name": "9 Sqd",
                      "type": "squad",
                      "children": [
                        {
                          "id": "ind113",
                          "name": "Ind. Atlas",
                          "type": "individual",
                          "position": {
                            "lat": 46.50386,
                            "lon": 8.092518,
                            "alt": 2541
                          },
                          "children": []
                        },
                        {
                          "id": "ind114",
                          "name": "Ind. Bandit",
                          "type": "individual",
                          "position": {
                            "lat": 46.503728,
                            "lon": 8.092493,
                            "alt": 2518
                          },
                          "children": []
                        },
                        {
                          "id": "ind115",
                          "name": "Ind. Dagger",
                          "type": "individual",
                          "position": {
                            "lat": 46.503626,
                            "lon": 8.092438,
                            "alt": 2509
                          },
                          "children": []
                        },
                        {
                          "id": "ind116",
                          "name": "Ind. Enforcer",
                          "type": "individual",
                          "position": {
                            "lat": 46.503604,
                            "lon": 8.092301,
                            "alt": 2499
                          },
                          "children": []
                        },
                        {
                          "id": "ind117",
                          "name": "Ind. Foxhound",
                          "type": "individual",
                          "position": {
                            "lat": 46.503526,
                            "lon": 8.092222,
                            "alt": 2527
                          },
                          "children": []
                        },
                        {
                          "id": "ind118",
                          "name": "Ind. Gunner",
                          "type": "individual",
                          "position": {
                            "lat": 46.503626,
                            "lon": 8.091962,
                            "alt": 2532
                          },
                          "children": []
                        },
                        {
                          "id": "ind119",
                          "name": "Ind. Hercules",
                          "type": "individual",
                          "position": {
                            "lat": 46.503625,
                            "lon": 8.091804,
                            "alt": 2472
                          },
                          "children": []
                        },
                        {
                          "id": "ind120",
                          "name": "Ind. Juggernaut",
                          "type": "individual",
                          "position": {
                            "lat": 46.503493,
                            "lon": 8.091779,
                            "alt": 2550
                          },
                          "children": []
                        },
                        {
                          "id": "ind121",
                          "name": "Ind. Kodiak",
                          "type": "individual",
                          "position": {
                            "lat": 46.503523,
                            "lon": 8.09159,
                            "alt": 2493
                          },
                          "children": []
                        },
                        {
                          "id": "ind122",
                          "name": "Ind. Lynx",
                          "type": "individual",
                          "position": {
                            "lat": 46.50332,
                            "lon": 8.091636,
                            "alt": 2505
                          },
                          "children": []
                        },
                        {
                          "id": "ind123",
                          "name": "Ind. Mantis",
                          "type": "individual",
                          "position": {
                            "lat": 46.503433,
                            "lon": 8.091364,
                            "alt": 2515
                          },
                          "children": []
                        }
                      ],
                      "commander": {
                        "id": "cmd124",
                        "name": "Cmd. Bishop",
                        "position": {
                          "lat": 46.50305,
                          "lon": 8.092544,
                          "alt": 2463
                        }
                      }
                    }
                  ],
                  "commander": {
                    "id": "cmd126",
                    "name": "Cmd. Castle",
                    "position": {
                      "lat": 46.503271,
                      "lon": 8.094241,
                      "alt": 2476
                    }
                  },
                  "staff": [
                    {
                      "id": "staff128",
                      "name": "Stf. Draco",
                      "position": {
                        "lat": 46.503195,
                        "lon": 8.094301,
                        "alt": 2476
                      }
                    },
                    {
                      "id": "staff129",
                      "name": "Stf. Enigma",
                      "position": {
                        "lat": 46.503197,
                        "lon": 8.094424,
                        "alt": 2476
                      }
                    }
                  ]
                }
              ],
              "commander": {
                "id": "cmd130",
                "name": "Cmd. Firestorm",
                "position": {
                  "lat": 46.505104,
                  "lon": 8.098268,
                  "alt": 2498
                }
              },
              "staff": [
                {
                  "id": "staff132",
                  "name": "Stf. Quicksilver",
                  "position": {
                    "lat": 46.505252,
                    "lon": 8.098376,
                    "alt": 2498
                  }
                },
                {
                  "id": "staff133",
                  "name": "Stf. Ronin",
                  "position": {
                    "lat": 46.505175,
                    "lon": 8.098479,
                    "alt": 2498
                  }
                }
              ]
            },
            {
              "id": "co264",
              "name": "B Co",
              "type": "company",
              "children": [
                {
                  "id": "pl174",
                  "name": "11 Plt",
                  "type": "platoon",
                  "children": [
                    {
                      "id": "sq146",
                      "name": "10 Sqd",
                      "type": "squad",
                      "children": [
                        {
                          "id": "ind134",
                          "name": "Ind. Umbra",
                          "type": "individual",
                          "position": {
                            "lat": 46.503619,
                            "lon": 8.091009,
                            "alt": 2510
                          },
                          "children": []
                        },
                        {
                          "id": "ind135",
                          "name": "Ind. Vertex",
                          "type": "individual",
                          "position": {
                            "lat": 46.503702,
                            "lon": 8.090787,
                            "alt": 2497
                          },
                          "children": []
                        },
                        {
                          "id": "ind136",
                          "name": "Ind. Wildfire",
                          "type": "individual",
                          "position": {
                            "lat": 46.503561,
                            "lon": 8.090756,
                            "alt": 2482
                          },
                          "children": []
                        },
                        {
                          "id": "ind137",
                          "name": "Ind. Xenon",
                          "type": "individual",
                          "position": {
                            "lat": 46.503424,
                            "lon": 8.090721,
                            "alt": 2460
                          },
                          "children": []
                        },
                        {
                          "id": "ind138",
                          "name": "Ind. Yeti",
                          "type": "individual",
                          "position": {
                            "lat": 46.50337,
                            "lon": 8.090616,
                            "alt": 2477
                          },
                          "children": []
                        },
                        {
                          "id": "ind139",
                          "name": "Ind. Breaker",
                          "type": "individual",
                          "position": {
                            "lat": 46.503415,
                            "lon": 8.090427,
                            "alt": 2466
                          },
                          "children": []
                        },
                        {
                          "id": "ind140",
                          "name": "Ind. Dominator",
                          "type": "individual",
                          "position": {
                            "lat": 46.503413,
                            "lon": 8.090278,
                            "alt": 2499
                          },
                          "children": []
                        },
                        {
                          "id": "ind141",
                          "name": "Ind. Impulse",
                          "type": "individual",
                          "position": {
                            "lat": 46.503379,
                            "lon": 8.090157,
                            "alt": 2543
                          },
                          "children": []
                        },
                        {
                          "id": "ind142",
                          "name": "Ind. Jester",
                          "type": "individual",
                          "position": {
                            "lat": 46.503204,
                            "lon": 8.090153,
                            "alt": 2510
                          },
                          "children": []
                        },
                        {
                          "id": "ind143",
                          "name": "Ind. Rogue",
                          "type": "individual",
                          "position": {
                            "lat": 46.503137,
                            "lon": 8.090059,
                            "alt": 2537
                          },
                          "children": []
                        },
                        {
                          "id": "ind144",
                          "name": "Ind. Maverick",
                          "type": "individual",
                          "position": {
                            "lat": 46.503281,
                            "lon": 8.089787,
                            "alt": 2464
                          },
                          "children": []
                        }
                      ],
                      "commander": {
                        "id": "cmd145",
                        "name": "Cmd. Echo",
                        "position": {
                          "lat": 46.502716,
                          "lon": 8.091018,
                          "alt": 2474
                        }
                      }
                    },
                    {
                      "id": "sq159",
                      "name": "11 Sqd",
                      "type": "squad",
                      "children": [
                        {
                          "id": "ind147",
                          "name": "Ind. Foxtrot",
                          "type": "individual",
                          "position": {
                            "lat": 46.503079,
                            "lon": 8.089836,
                            "alt": 2474
                          },
                          "children": []
                        },
                        {
                          "id": "ind148",
                          "name": "Ind. Kilo",
                          "type": "individual",
                          "position": {
                            "lat": 46.503042,
                            "lon": 8.089718,
                            "alt": 2478
                          },
                          "children": []
                        },
                        {
                          "id": "ind149",
                          "name": "Ind. Lima",
                          "type": "individual",
                          "position": {
                            "lat": 46.502936,
                            "lon": 8.089647,
                            "alt": 2550
                          },
                          "children": []
                        },
                        {
                          "id": "ind150",
                          "name": "Ind. Oscar",
                          "type": "individual",
                          "position": {
                            "lat": 46.502887,
                            "lon": 8.089536,
                            "alt": 2483
                          },
                          "children": []
                        },
                        {
                          "id": "ind151",
                          "name": "Ind. Tango",
                          "type": "individual",
                          "position": {
                            "lat": 46.502894,
                            "lon": 8.089387,
                            "alt": 2503
                          },
                          "children": []
                        },
                        {
                          "id": "ind152",
                          "name": "Ind. Zulu",
                          "type": "individual",
                          "position": {
                            "lat": 46.502722,
                            "lon": 8.089361,
                            "alt": 2524
                          },
                          "children": []
                        },
                        {
                          "id": "ind153",
                          "name": "Ind. Archer",
                          "type": "individual",
                          "position": {
                            "lat": 46.502703,
                            "lon": 8.08923,
                            "alt": 2507
                          },
                          "children": []
                        },
                        {
                          "id": "ind154",
                          "name": "Ind. Hawk",
                          "type": "individual",
                          "position": {
                            "lat": 46.50277,
                            "lon": 8.08904,
                            "alt": 2511
                          },
                          "children": []
                        },
                        {
                          "id": "ind155",
                          "name": "Ind. Reaper",
                          "type": "individual",
                          "position": {
                            "lat": 46.502625,
                            "lon": 8.088996,
                            "alt": 2551
                          },
                          "children": []
                        },
                        {
                          "id": "ind156",
                          "name": "Ind. Phalanx",
                          "type": "individual",
                          "position": {
                            "lat": 46.502628,
                            "lon": 8.088849,
                            "alt": 2492
                          },
                          "children": []
                        },
                        {
                          "id": "ind157",
                          "name": "Ind. Rampart",
                          "type": "individual",
                          "position": {
                            "lat": 46.502505,
                            "lon": 8.08879,
                            "alt": 2485
                          },
                          "children": []
                        }
                      ],
                      "commander": {
                        "id": "cmd158",
                        "name": "Cmd. Stalker",
                        "position": {
                          "lat": 46.502101,
                          "lon": 8.089791,
                          "alt": 2509
                        }
                      }
                    },
                    {
                      "id": "sq172",
                      "name": "12 Sqd",
                      "type": "squad",
                      "children": [
                        {
                          "id": "ind160",
                          "name": "Ind. Tigershark",
                          "type": "individual",
                          "position": {
                            "lat": 46.5026,
                            "lon": 8.088581,
                            "alt": 2465
                          },
                          "children": []
                        },
                        {
                          "id": "ind161",
                          "name": "Ind. Vandal",
                          "type": "individual",
                          "position": {
                            "lat": 46.502415,
                            "lon": 8.088542,
                            "alt": 2460
                          },
                          "children": []
                        },
                        {
                          "id": "ind162",
                          "name": "Ind. Wraith",
                          "type": "individual",
                          "position": {
                            "lat": 46.502533,
                            "lon": 8.088339,
                            "alt": 2550
                          },
                          "children": []
                        },
                        {
                          "id": "ind163",
                          "name": "Ind. Brimstone",
                          "type": "individual",
                          "position": {
                            "lat": 46.502362,
                            "lon": 8.088293,
                            "alt": 2544
                          },
                          "children": []
                        },
                        {
                          "id": "ind164",
                          "name": "Ind. Cutlass",
                          "type": "individual",
                          "position": {
                            "lat": 46.502432,
                            "lon": 8.088116,
                            "alt": 2511
                          },
                          "children": []
                        },
                        {
                          "id": "ind165",
                          "name": "Ind. Deacon",
                          "type": "individual",
                          "position": {
                            "lat": 46.502253,
                            "lon": 8.088074,
                            "alt": 2497
                          },
                          "children": []
                        },
                        {
                          "id": "ind166",
                          "name": "Ind. Falcon",
                          "type": "individual",
                          "position": {
                            "lat": 46.502303,
                            "lon": 8.087908,
                            "alt": 2538
                          },
                          "children": []
                        },
                        {
                          "id": "ind167",
                          "name": "Ind. Griffin",
                          "type": "individual",
                          "position": {
                            "lat": 46.502358,
                            "lon": 8.087738,
                            "alt": 2543
                          },
                          "children": []
                        },
                        {
                          "id": "ind168",
                          "name": "Ind. Havoc",
                          "type": "individual",
                          "position": {
                            "lat": 46.502349,
                            "lon": 8.087604,
                            "alt": 2467
                          },
                          "children": []
                        },
                        {
                          "id": "ind169",
                          "name": "Ind. Ironside",
                          "type": "individual",
                          "position": {
                            "lat": 46.502194,
                            "lon": 8.08755,
                            "alt": 2539
                          },
                          "children": []
                        },
                        {
                          "id": "ind170",
                          "name": "Ind. Jaguar",
                          "type": "individual",
                          "position": {
                            "lat": 46.502095,
                            "lon": 8.087464,
                            "alt": 2483
                          },
                          "children": []
                        }
                      ],
                      "commander": {
                        "id": "cmd171",
                        "name": "Cmd. Katana",
                        "position": {
                          "lat": 46.501628,
                          "lon": 8.088415,
                          "alt": 2462
                        }
                      }
                    }
                  ],
                  "commander": {
                    "id": "cmd173",
                    "name": "Cmd. Loki",
                    "position": {
                      "lat": 46.50189,
                      "lon": 8.089936,
                      "alt": 2474
                    }
                  },
                  "staff": [
                    {
                      "id": "staff175",
                      "name": "Stf. Magnum",
                      "position": {
                        "lat": 46.501793,
                        "lon": 8.089844,
                        "alt": 2474
                      }
                    },
                    {
                      "id": "staff176",
                      "name": "Stf. Northstar",
                      "position": {
                        "lat": 46.502034,
                        "lon": 8.089987,
                        "alt": 2474
                      }
                    }
                  ]
                },
                {
                  "id": "pl217",
                  "name": "12 Plt",
                  "type": "platoon",
                  "children": [
                    {
                      "id": "sq189",
                      "name": "13 Sqd",
                      "type": "squad",
                      "children": [
                        {
                          "id": "ind177",
                          "name": "Ind. Paladin",
                          "type": "individual",
                          "position": {
                            "lat": 46.502283,
                            "lon": 8.08723,
                            "alt": 2494
                          },
                          "children": []
                        },
                        {
                          "id": "ind178",
                          "name": "Ind. Rapier",
                          "type": "individual",
                          "position": {
                            "lat": 46.502392,
                            "lon": 8.087049,
                            "alt": 2474
                          },
                          "children": []
                        },
                        {
                          "id": "ind179",
                          "name": "Ind. Sable",
                          "type": "individual",
                          "position": {
                            "lat": 46.502403,
                            "lon": 8.086909,
                            "alt": 2452
                          },
                          "children": []
                        },
                        {
                          "id": "ind180",
                          "name": "Ind. Templar",
                          "type": "individual",
                          "position": {
                            "lat": 46.502233,
                            "lon": 8.086844,
                            "alt": 2546
                          },
                          "children": []
                        },
                        {
                          "id": "ind181",
                          "name": "Ind. Uppercut",
                          "type": "individual",
                          "position": {
                            "lat": 46.502344,
                            "lon": 8.086663,
                            "alt": 2482
                          },
                          "children": []
                        },
                        {
                          "id": "ind182",
                          "name": "Ind. Vigil",
                          "type": "individual",
                          "position": {
                            "lat": 46.502274,
                            "lon": 8.086556,
                            "alt": 2509
                          },
                          "children": []
                        },
                        {
                          "id": "ind183",
                          "name": "Ind. Warpath",
                          "type": "individual",
                          "position": {
                            "lat": 46.502222,
                            "lon": 8.086442,
                            "alt": 2547
                          },
                          "children": []
                        },
                        {
                          "id": "ind184",
                          "name": "Ind. Yellowjacket",
                          "type": "individual",
                          "position": {
                            "lat": 46.50226,
                            "lon": 8.086291,
                            "alt": 2528
                          },
                          "children": []
                        },
                        {
                          "id": "ind185",
                          "name": "Ind. Zero",
                          "type": "individual",
                          "position": {
                            "lat": 46.502084,
                            "lon": 8.086228,
                            "alt": 2494
                          },
                          "children": []
                        },
                        {
                          "id": "ind186",
                          "name": "Ind. Anvil",
                          "type": "individual",
                          "position": {
                            "lat": 46.502296,
                            "lon": 8.086006,
                            "alt": 2486
                          },
                          "children": []
                        },
                        {
                          "id": "ind187",
                          "name": "Ind. Barrage",
                          "type": "individual",
                          "position": {
                            "lat": 46.50213,
                            "lon": 8.085939,
                            "alt": 2507
                          },
                          "children": []
                        }
                      ],
                      "commander": {
                        "id": "cmd188",
                        "name": "Cmd. Claymore",
                        "position": {
                          "lat": 46.501341,
                          "lon": 8.086939,
                          "alt": 2506
                        }
                      }
                    },
                    {
                      "id": "sq202",
                      "name": "14 Sqd",
                      "type": "squad",
                      "children": [
                        {
                          "id": "ind190",
                          "name": "Ind. Dire",
                          "type": "individual",
                          "position": {
                            "lat": 46.50193,
                            "lon": 8.085851,
                            "alt": 2456
                          },
                          "children": []
                        },
                        {
                          "id": "ind191",
                          "name": "Ind. Epoch",
                          "type": "individual",
                          "position": {
                            "lat": 46.502007,
                            "lon": 8.085697,
                            "alt": 2463
                          },
                          "children": []
                        },
                        {
                          "id": "ind192",
                          "name": "Ind. Frostbite",
                          "type": "individual",
                          "position": {
                            "lat": 46.501757,
                            "lon": 8.085635,
                            "alt": 2529
                          },
                          "children": []
                        },
                        {
                          "id": "ind193",
                          "name": "Ind. Galahad",
                          "type": "individual",
                          "position": {
                            "lat": 46.501766,
                            "lon": 8.0855,
                            "alt": 2549
                          },
                          "children": []
                        },
                        {
                          "id": "ind194",
                          "name": "Ind. Hellfire",
                          "type": "individual",
                          "position": {
                            "lat": 46.501902,
                            "lon": 8.085328,
                            "alt": 2458
                          },
                          "children": []
                        },
                        {
                          "id": "ind195",
                          "name": "Ind. Ibex",
                          "type": "individual",
                          "position": {
                            "lat": 46.501738,
                            "lon": 8.085242,
                            "alt": 2454
                          },
                          "children": []
                        },
                        {
                          "id": "ind196",
                          "name": "Ind. Joker",
                          "type": "individual",
                          "position": {
                            "lat": 46.501801,
                            "lon": 8.085092,
                            "alt": 2463
                          },
                          "children": []
                        },
                        {
                          "id": "ind197",
                          "name": "Ind. Krieg",
                          "type": "individual",
                          "position": {
                            "lat": 46.501806,
                            "lon": 8.084957,
                            "alt": 2519
                          },
                          "children": []
                        },
                        {
                          "id": "ind198",
                          "name": "Ind. Locust",
                          "type": "individual",
                          "position": {
                            "lat": 46.501686,
                            "lon": 8.084859,
                            "alt": 2480
                          },
                          "children": []
                        },
                        {
                          "id": "ind199",
                          "name": "Ind. Mace",
                          "type": "individual",
                          "position": {
                            "lat": 46.501881,
                            "lon": 8.08467,
                            "alt": 2528
                          },
                          "children": []
                        },
                        {
                          "id": "ind200",
                          "name": "Ind. Nightfall",
                          "type": "individual",
                          "position": {
                            "lat": 46.501613,
                            "lon": 8.084614,
                            "alt": 2535
                          },
                          "children": []
                        }
                      ],
                      "commander": {
                        "id": "cmd201",
                        "name": "Cmd. Ogre",
                        "position": {
                          "lat": 46.501267,
                          "lon": 8.085377,
                          "alt": 2500
                        }
                      }
                    },
                    {
                      "id": "sq215",
                      "name": "15 Sqd",
                      "type": "squad",
                      "children": [
                        {
                          "id": "ind203",
                          "name": "Ind. Pyre",
                          "type": "individual",
                          "position": {
                            "lat": 46.501801,
                            "lon": 8.084446,
                            "alt": 2482
                          },
                          "children": []
                        },
                        {
                          "id": "ind204",
                          "name": "Ind. Quake",
                          "type": "individual",
                          "position": {
                            "lat": 46.501855,
                            "lon": 8.084305,
                            "alt": 2449
                          },
                          "children": []
                        },
                        {
                          "id": "ind205",
                          "name": "Ind. Reckoner",
                          "type": "individual",
                          "position": {
                            "lat": 46.501914,
                            "lon": 8.084163,
                            "alt": 2471
                          },
                          "children": []
                        },
                        {
                          "id": "ind206",
                          "name": "Ind. Scythe",
                          "type": "individual",
                          "position": {
                            "lat": 46.501753,
                            "lon": 8.084061,
                            "alt": 2475
                          },
                          "children": []
                        },
                        {
                          "id": "ind207",
                          "name": "Ind. Typhon",
                          "type": "individual",
                          "position": {
                            "lat": 46.501797,
                            "lon": 8.083921,
                            "alt": 2472
                          },
                          "children": []
                        },
                        {
                          "id": "ind208",
                          "name": "Ind. Undertow",
                          "type": "individual",
                          "position": {
                            "lat": 46.501969,
                            "lon": 8.08376,
                            "alt": 2495
                          },
                          "children": []
                        },
                        {
                          "id": "ind209",
                          "name": "Ind. Vortex",
                          "type": "individual",
                          "position": {
                            "lat": 46.501894,
                            "lon": 8.083642,
                            "alt": 2484
                          },
                          "children": []
                        },
                        {
                          "id": "ind210",
                          "name": "Ind. Wyvern",
                          "type": "individual",
                          "position": {
                            "lat": 46.501858,
                            "lon": 8.083517,
                            "alt": 2472
                          },
                          "children": []
                        },
                        {
                          "id": "ind211",
                          "name": "Ind. Crossbow",
                          "type": "individual",
                          "position": {
                            "lat": 46.501765,
                            "lon": 8.083402,
                            "alt": 2514
                          },
                          "children": []
                        },
                        {
                          "id": "ind212",
                          "name": "Ind. Bastion",
                          "type": "individual",
                          "position": {
                            "lat": 46.50172,
                            "lon": 8.083279,
                            "alt": 2521
                          },
                          "children": []
                        },
                        {
                          "id": "ind213",
                          "name": "Ind. Caliber",
                          "type": "individual",
                          "position": {
                            "lat": 46.501869,
                            "lon": 8.083121,
                            "alt": 2476
                          },
                          "children": []
                        }
                      ],
                      "commander": {
                        "id": "cmd214",
                        "name": "Cmd. Detonate",
                        "position": {
                          "lat": 46.500754,
                          "lon": 8.083974,
                          "alt": 2529
                        }
                      }
                    }
                  ],
                  "commander": {
                    "id": "cmd216",
                    "name": "Cmd. Exarch",
                    "position": {
                      "lat": 46.500747,
                      "lon": 8.085525,
                      "alt": 2554
                    }
                  },
                  "staff": [
                    {
                      "id": "staff218",
                      "name": "Stf. Flare",
                      "position": {
                        "lat": 46.500708,
                        "lon": 8.08528,
                        "alt": 2554
                      }
                    },
                    {
                      "id": "staff219",
                      "name": "Stf. Gale",
                      "position": {
                        "lat": 46.500873,
                        "lon": 8.08561,
                        "alt": 2554
                      }
                    }
                  ]
                },
                {
                  "id": "pl260",
                  "name": "13 Plt",
                  "type": "platoon",
                  "children": [
                    {
                      "id": "sq232",
                      "name": "16 Sqd",
                      "type": "squad",
                      "children": [
                        {
                          "id": "ind220",
                          "name": "Ind. Hoplite",
                          "type": "individual",
                          "position": {
                            "lat": 46.501612,
                            "lon": 8.083012,
                            "alt": 2519
                          },
                          "children": []
                        },
                        {
                          "id": "ind221",
                          "name": "Ind. Invictus",
                          "type": "individual",
                          "position": {
                            "lat": 46.501442,
                            "lon": 8.082895,
                            "alt": 2487
                          },
                          "children": []
                        },
                        {
                          "id": "ind222",
                          "name": "Ind. Jolt",
                          "type": "individual",
                          "position": {
                            "lat": 46.501482,
                            "lon": 8.082761,
                            "alt": 2494
                          },
                          "children": []
                        },
                        {
                          "id": "ind223",
                          "name": "Ind. Viper",
                          "type": "individual",
                          "position": {
                            "lat": 46.501515,
                            "lon": 8.082628,
                            "alt": 2467
                          },
                          "children": []
                        },
                        {
                          "id": "ind224",
                          "name": "Ind. Falcon",
                          "type": "individual",
                          "position": {
                            "lat": 46.50142,
                            "lon": 8.082505,
                            "alt": 2542
                          },
                          "children": []
                        },
                        {
                          "id": "ind225",
                          "name": "Ind. Raptor",
                          "type": "individual",
                          "position": {
                            "lat": 46.501411,
                            "lon": 8.082375,
                            "alt": 2498
                          },
                          "children": []
                        },
                        {
                          "id": "ind226",
                          "name": "Ind. Ghost",
                          "type": "individual",
                          "position": {
                            "lat": 46.501546,
                            "lon": 8.082234,
                            "alt": 2454
                          },
                          "children": []
                        },
                        {
                          "id": "ind227",
                          "name": "Ind. Shadow",
                          "type": "individual",
                          "position": {
                            "lat": 46.501497,
                            "lon": 8.082107,
                            "alt": 2509
                          },
                          "children": []
                        },
                        {
                          "id": "ind228",
                          "name": "Ind. Phoenix",
                          "type": "individual",
                          "position": {
                            "lat": 46.501637,
                            "lon": 8.081966,
                            "alt": 2465
                          },
                          "children": []
                        },
                        {
                          "id": "ind229",
                          "name": "Ind. Thunder",
                          "type": "individual",
                          "position": {
                            "lat": 46.501444,
                            "lon": 8.081851,
                            "alt": 2530
                          },
                          "children": []
                        },
                        {
                          "id": "ind230",
                          "name": "Ind. Eagle",
                          "type": "individual",
                          "position": {
                            "lat": 46.501498,
                            "lon": 8.081716,
                            "alt": 2545
                          },
                          "children": []
                        }
                      ],
                      "commander": {
                        "id": "cmd231",
                        "name": "Cmd. Wolf",
                        "position": {
                          "lat": 46.500922,
                          "lon": 8.082413,
                          "alt": 2546
                        }
                      }
                    },
                    {
                      "id": "sq245",
                      "name": "17 Sqd",
                      "type": "squad",
                      "children": [
                        {
                          "id": "ind233",
                          "name": "Ind. Cobra",
                          "type": "individual",
                          "position": {
                            "lat": 46.501403,
                            "lon": 8.081574,
                            "alt": 2512
                          },
                          "children": []
                        },
                        {
                          "id": "ind234",
                          "name": "Ind. Frost",
                          "type": "individual",
                          "position": {
                            "lat": 46.501432,
                            "lon": 8.081444,
                            "alt": 2535
                          },
                          "children": []
                        },
                        {
                          "id": "ind235",
                          "name": "Ind. Delta",
                          "type": "individual",
                          "position": {
                            "lat": 46.501419,
                            "lon": 8.081313,
                            "alt": 2544
                          },
                          "children": []
                        },
                        {
                          "id": "ind236",
                          "name": "Ind. Romeo",
                          "type": "individual",
                          "position": {
                            "lat": 46.501338,
                            "lon": 8.081182,
                            "alt": 2457
                          },
                          "children": []
                        },
                        {
                          "id": "ind237",
                          "name": "Ind. Ember",
                          "type": "individual",
                          "position": {
                            "lat": 46.501431,
                            "lon": 8.081053,
                            "alt": 2468
                          },
                          "children": []
                        },
                        {
                          "id": "ind238",
                          "name": "Ind. Marshal",
                          "type": "individual",
                          "position": {
                            "lat": 46.501449,
                            "lon": 8.080923,
                            "alt": 2494
                          },
                          "children": []
                        },
                        {
                          "id": "ind239",
                          "name": "Ind. Nitro",
                          "type": "individual",
                          "position": {
                            "lat": 46.501437,
                            "lon": 8.080792,
                            "alt": 2515
                          },
                          "children": []
                        },
                        {
                          "id": "ind240",
                          "name": "Ind. Onyx",
                          "type": "individual",
                          "position": {
                            "lat": 46.501557,
                            "lon": 8.080663,
                            "alt": 2492
                          },
                          "children": []
                        },
                        {
                          "id": "ind241",
                          "name": "Ind. Panther",
                          "type": "individual",
                          "position": {
                            "lat": 46.501455,
                            "lon": 8.080532,
                            "alt": 2451
                          },
                          "children": []
                        },
                        {
                          "id": "ind242",
                          "name": "Ind. Bolt",
                          "type": "individual",
                          "position": {
                            "lat": 46.501387,
                            "lon": 8.080401,
                            "alt": 2510
                          },
                          "children": []
                        },
                        {
                          "id": "ind243",
                          "name": "Ind. Kraken",
                          "type": "individual",
                          "position": {
                            "lat": 46.501427,
                            "lon": 8.080271,
                            "alt": 2509
                          },
                          "children": []
                        }
                      ],
                      "commander": {
                        "id": "cmd244",
                        "name": "Cmd. Trident",
                        "position": {
                          "lat": 46.50078,
                          "lon": 8.080917,
                          "alt": 2460
                        }
                      }
                    },
                    {
                      "id": "sq258",
                      "name": "18 Sqd",
                      "type": "squad",
                      "children": [
                        {
                          "id": "ind246",
                          "name": "Ind. Forge",
                          "type": "individual",
                          "position": {
                            "lat": 46.501566,
                            "lon": 8.08013,
                            "alt": 2505
                          },
                          "children": []
                        },
                        {
                          "id": "ind247",
                          "name": "Ind. Interceptor",
                          "type": "individual",
                          "position": {
                            "lat": 46.501643,
                            "lon": 8.080006,
                            "alt": 2482
                          },
                          "children": []
                        },
                        {
                          "id": "ind248",
                          "name": "Ind. Jackal",
                          "type": "individual",
                          "position": {
                            "lat": 46.501455,
                            "lon": 8.07986,
                            "alt": 2521
                          },
                          "children": []
                        },
                        {
                          "id": "ind249",
                          "name": "Ind. Longbow",
                          "type": "individual",
                          "position": {
                            "lat": 46.501523,
                            "lon": 8.079735,
                            "alt": 2450
                          },
                          "children": []
                        },