{
  "id": "bde3884",
  "name": "1 Bde",
  "type": "brigade",
  "position": {
    "lat": 46.556093,
    "lon": 7.960652,
    "alt": 2805
  },
  "children": [
    {
      "id": "rgt1292",
      "name": "1 Rgt",
      "type": "regiment",
      "position": {
        "lat": 46.513528,
        "lon": 8.052166,
        "alt": 2434
      },
      "children": [
        {
          "id": "bn428",
          "name": "1 Bn",
          "type": "battalion",
          "position": {
            "lat": 46.508855,
            "lon": 8.089977,
            "alt": 2500
          },
          "children": [
            {
              "id": "co140",
              "name": "A Co",
              "type": "company",
              "position": {
                "lat": 46.508479,
                "lon": 8.102796,
                "alt": 2531
              },
              "children": [
                {
                  "id": "pl44",
                  "name": "1 Plt",
                  "type": "platoon",
                  "position": {
                    "lat": 46.509203,
                    "lon": 8.107452,
                    "alt": 2562
                  },
                  "children": [
                    {
                      "id": "sq14",
                      "name": "1 Sqd",
                      "type": "squad",
                      "position": {
                        "lat": 46.50939,
                        "lon": 8.108967,
                        "alt": 2583
                      },
                      "children": [
                        {
                          "id": "ind1",
                          "name": "Ind. Viper",
                          "type": "individual",
                          "position": {
                            "lat": 46.51001,
                            "lon": 8.109927,
                            "alt": 2539
                          },
                          "children": []
                        },
                        {
                          "id": "ind2",
                          "name": "Ind. Falcon",
                          "type": "individual",
                          "position": {
                            "lat": 46.509717,
                            "lon": 8.109657,
                            "alt": 2525
                          },
                          "children": []
                        },
                        {
                          "id": "ind3",
                          "name": "Ind. Raptor",
                          "type": "individual",
                          "position": {
                            "lat": 46.509947,
                            "lon": 8.109665,
                            "alt": 2507
                          },
                          "children": []
                        },
                        {
                          "id": "ind4",
                          "name": "Ind. Ghost",
                          "type": "individual",
                          "position": {
                            "lat": 46.510122,
                            "lon": 8.109644,
                            "alt": 2538
                          },
                          "children": []
                        },
                        {
                          "id": "ind5",
                          "name": "Ind. Shadow",
                          "type": "individual",
                          "position": {
                            "lat": 46.51014,
                            "lon": 8.109539,
                            "alt": 2549
                          },
                          "children": []
                        },
                        {
                          "id": "ind6",
                          "name": "Ind. Phoenix",
                          "type": "individual",
                          "position": {
                            "lat": 46.510276,
                            "lon": 8.109497,
                            "alt": 2567
                          },
                          "children": []
                        },
                        {
                          "id": "ind7",
                          "name": "Ind. Thunder",
                          "type": "individual",
                          "position": {
                            "lat": 46.50991,
                            "lon": 8.109188,
                            "alt": 2524
                          },
                          "children": []
                        },
                        {
                          "id": "ind8",
                          "name": "Ind. Eagle",
                          "type": "individual",
                          "position": {
                            "lat": 46.510448,
                            "lon": 8.109359,
                            "alt": 2540
                          },
                          "children": []
                        },
                        {
                          "id": "ind9",
                          "name": "Ind. Wolf",
                          "type": "individual",
                          "position": {
                            "lat": 46.510044,
                            "lon": 8.10903,
                            "alt": 2506
                          },
                          "children": []
                        },
                        {
                          "id": "ind10",
                          "name": "Ind. Cobra",
                          "type": "individual",
                          "position": {
                            "lat": 46.510122,
                            "lon": 8.108957,
                            "alt": 2577
                          },
                          "children": []
                        },
                        {
                          "id": "ind11",
                          "name": "Ind. Frost",
                          "type": "individual",
                          "position": {
                            "lat": 46.510099,
                            "lon": 8.10883,
                            "alt": 2576
                          },
                          "children": []
                        },
                        {
                          "id": "ind12",
                          "name": "Ind. Delta",
                          "type": "individual",
                          "position": {
                            "lat": 46.510449,
                            "lon": 8.108903,
                            "alt": 2508
                          },
                          "children": []
                        }
                      ],
                      "commander": {
                        "id": "cmd13",
                        "name": "Cmd. Romeo"
                      }
                    },
                    {
                      "id": "sq28",
                      "name": "2 Sqd",
                      "type": "squad",
                      "position": {
                        "lat": 46.509889,
                        "lon": 8.107813,
                        "alt": 2566
                      },
                      "children": [
                        {
                          "id": "ind15",
                          "name": "Ind. Ember",
                          "type": "individual",
                          "position": {
                            "lat": 46.510224,
                            "lon": 8.108624,
                            "alt": 2560
                          },
                          "children": []
                        },
                        {
                          "id": "ind16",
                          "name": "Ind. Marshal",
                          "type": "individual",
                          "position": {
                            "lat": 46.510499,
                            "lon": 8.108658,
                            "alt": 2556
                          },
                          "children": []
                        },
                        {
                          "id": "ind17",
                          "name": "Ind. Nitro",
                          "type": "individual",
                          "position": {
                            "lat": 46.510433,
                            "lon": 8.108508,
                            "alt": 2524
                          },
                          "children": []
                        },
                        {
                          "id": "ind18",
                          "name": "Ind. Onyx",
                          "type": "individual",
                          "position": {
                            "lat": 46.510394,
                            "lon": 8.108372,
                            "alt": 2499
                          },
                          "children": []
                        },
                        {
                          "id": "ind19",
                          "name": "Ind. Panther",
                          "type": "individual",
                          "position": {
                            "lat": 46.510589,
                            "lon": 8.108363,
                            "alt": 2549
                          },
                          "children": []
                        },
                        {
                          "id": "ind20",
                          "name": "Ind. Bolt",
                          "type": "individual",
                          "position": {
                            "lat": 46.510147,
                            "lon": 8.10801,
                            "alt": 2540
                          },
                          "children": []
                        },
                        {
                          "id": "ind21",
                          "name": "Ind. Kraken",
                          "type": "individual",
                          "position": {
                            "lat": 46.510429,
                            "lon": 8.108047,
                            "alt": 2524
                          },
                          "children": []
                        },
                        {
                          "id": "ind22",
                          "name": "Ind. Trident",
                          "type": "individual",
                          "position": {
                            "lat": 46.510442,
                            "lon": 8.107939,
                            "alt": 2505
                          },
                          "children": []
                        },
                        {
                          "id": "ind23",
                          "name": "Ind. Forge",
                          "type": "individual",
                          "position": {
                            "lat": 46.510675,
                            "lon": 8.107951,
                            "alt": 2525
                          },
                          "children": []
                        },
                        {
                          "id": "ind24",
                          "name": "Ind. Interceptor",
                          "type": "individual",
                          "position": {
                            "lat": 46.510866,
                            "lon": 8.107939,
                            "alt": 2526
                          },
                          "children": []
                        },
                        {
                          "id": "ind25",
                          "name": "Ind. Jackal",
                          "type": "individual",
                          "position": {
                            "lat": 46.510208,
                            "lon": 8.107469,
                            "alt": 2545
                          },
                          "children": []
                        },
                        {
                          "id": "ind26",
                          "name": "Ind. Longbow",
                          "type": "individual",
                          "position": {
                            "lat": 46.510509,
                            "lon": 8.107517,
                            "alt": 2512
                          },
                          "children": []
                        }
                      ],
                      "commander": {
                        "id": "cmd27",
                        "name": "Cmd. Mongoose"
                      }
                    },
                    {
                      "id": "sq42",
                      "name": "3 Sqd",
                      "type": "squad",
                      "position": {
                        "lat": 46.510477,
                        "lon": 8.106735,
                        "alt": 2496
                      },
                      "children": [
                        {
                          "id": "ind29",
                          "name": "Ind. Nighthawk",
                          "type": "individual",
                          "position": {
                            "lat": 46.510822,
                            "lon": 8.107554,
                            "alt": 2487
                          },
                          "children": []
                        },
                        {
                          "id": "ind30",
                          "name": "Ind. Papa",
                          "type": "individual",
                          "position": {
                            "lat": 46.510552,
                            "lon": 8.107292,
                            "alt": 2528
                          },
                          "children": []
                        },
                        {
                          "id": "ind31",
                          "name": "Ind. Quebec",
                          "type": "individual",
                          "position": {
                            "lat": 46.510809,
                            "lon": 8.107317,
                            "alt": 2518
                          },
                          "children": []
                        },
                        {
                          "id": "ind32",
                          "name": "Ind. Sierra",
                          "type": "individual",
                          "position": {
                            "lat": 46.511141,
                            "lon": 8.107385,
                            "alt": 2555
                          },
                          "children": []
                        },
                        {
                          "id": "ind33",
                          "name": "Ind. Whiskey",
                          "type": "individual",
                          "position": {
                            "lat": 46.510967,
                            "lon": 8.107174,
                            "alt": 2521
                          },
                          "children": []
                        },
                        {
                          "id": "ind34",
                          "name": "Ind. Flint",
                          "type": "individual",
                          "position": {
                            "lat": 46.510827,
                            "lon": 8.106983,
                            "alt": 2549
                          },
                          "children": []
                        },
                        {
                          "id": "ind35",
                          "name": "Ind. Warden",
                          "type": "individual",
                          "position": {
                            "lat": 46.510969,
                            "lon": 8.106946,
                            "alt": 2560
                          },
                          "children": []
                        },
                        {
                          "id": "ind36",
                          "name": "Ind. Inferno",
                          "type": "individual",
                          "position": {
                            "lat": 46.511164,
                            "lon": 8.106938,
                            "alt": 2483
                          },
                          "children": []
                        },
                        {
                          "id": "ind37",
                          "name": "Ind. Razor",
                          "type": "individual",
                          "position": {
                            "lat": 46.511196,
                            "lon": 8.106841,
                            "alt": 2471
                          },
                          "children": []
                        },
                        {
                          "id": "ind38",
                          "name": "Ind. Sentinel",
                          "type": "individual",
                          "position": {
                            "lat": 46.511026,
                            "lon": 8.106633,
                            "alt": 2529
                          },
                          "children": []
                        },
                        {
                          "id": "ind39",
                          "name": "Ind. Vanguard",
                          "type": "individual",
                          "position": {
                            "lat": 46.511231,
                            "lon": 8.106631,
                            "alt": 2560
                          },
                          "children": []
                        },
                        {
                          "id": "ind40",
                          "name": "Ind. Gladius",
                          "type": "individual",
                          "position": {
                            "lat": 46.511121,
                            "lon": 8.106456,
                            "alt": 2515
                          },
                          "children": []
                        }
                      ],
                      "commander": {
                        "id": "cmd41",
                        "name": "Cmd. Outlaw"
                      }
                    }
                  ],
                  "commander": {
                    "id": "cmd43",
                    "name": "Cmd. Arsenal"
                  },
                  "staff": [
                    {
                      "id": "staff45",
                      "name": "Stf. Icarus",
                      "position": {
                        "lat": 46.509248,
                        "lon": 8.107562,
                        "alt": 2562
                      }
                    },
                    {
                      "id": "staff46",
                      "name": "Stf. Nemesis",
                      "position": {
                        "lat": 46.509243,
                        "lon": 8.107556,
                        "alt": 2562
                      }
                    }
                  ]
                },
                {
                  "id": "pl90",
                  "name": "2 Plt",
                  "type": "platoon",
                  "position": {
                    "lat": 46.509855,
                    "lon": 8.103572,
                    "alt": 2471
                  },
                  "children": [
                    {
                      "id": "sq60",
                      "name": "4 Sqd",
                      "type": "squad",
                      "position": {
                        "lat": 46.510288,
                        "lon": 8.105226,
                        "alt": 2510
                      },
                      "children": [
                        {
                          "id": "ind47",
                          "name": "Ind. Corsair",
                          "type": "individual",
                          "position": {
                            "lat": 46.511275,
                            "lon": 8.106406,
                            "alt": 2534
                          },
                          "children": []
                        },
                        {
                          "id": "ind48",
                          "name": "Ind. Kestrel",
                          "type": "individual",
                          "position": {
                            "lat": 46.510935,
                            "lon": 8.106102,
                            "alt": 2547
                          },
                          "children": []
                        },
                        {
                          "id": "ind49",
                          "name": "Ind. Scorpion",
                          "type": "individual",
                          "position": {
                            "lat": 46.510745,
                            "lon": 8.105882,
                            "alt": 2529
                          },
                          "children": []
                        },
                        {
                          "id": "ind50",
                          "name": "Ind. Ace",
                          "type": "individual",
                          "position": {
                            "lat": 46.510955,
                            "lon": 8.105883,
                            "alt": 2485
                          },
                          "children": []
                        },
                        {
                          "id": "ind51",
                          "name": "Ind. Revenant",
                          "type": "individual",
                          "position": {
                            "lat": 46.511218,
                            "lon": 8.105915,
                            "alt": 2545
                          },
                          "children": []
                        },
                        {
                          "id": "ind52",
                          "name": "Ind. Praetor",
                          "type": "individual",
                          "position": {
                            "lat": 46.511432,
                            "lon": 8.105918,
                            "alt": 2487
                          },
                          "children": []
                        },
                        {
                          "id": "ind53",
                          "name": "Ind. Centurion",
                          "type": "individual",
                          "position": {
                            "lat": 46.510919,
                            "lon": 8.105519,
                            "alt": 2545
                          },
                          "children": []
                        },
                        {
                          "id": "ind54",
                          "name": "Ind. Condor",
                          "type": "individual",
                          "position": {
                            "lat": 46.511132,
                            "lon": 8.105522,
                            "alt": 2535
                          },
                          "children": []
                        },
                        {
                          "id": "ind55",
                          "name": "Ind. Harrier",
                          "type": "individual",
                          "position": {
                            "lat": 46.51119,
                            "lon": 8.105439,
                            "alt": 2533
                          },
                          "children": []
                        },
                        {
                          "id": "ind56",
                          "name": "Ind. Monarch",
                          "type": "individual",
                          "position": {
                            "lat": 46.510847,
                            "lon": 8.105134,
                            "alt": 2550
                          },
                          "children": []
                        },
                        {
                          "id": "ind57",
                          "name": "Ind. Sovereign",
                          "type": "individual",
                          "position": {
                            "lat": 46.51151,
                            "lon": 8.105387,
                            "alt": 2526
                          },
                          "children": []
                        },
                        {
                          "id": "ind58",
                          "name": "Ind. Sledgehammer",
                          "type": "individual",
                          "position": {
                            "lat": 46.511311,
                            "lon": 8.105161,
                            "alt": 2514
                          },
                          "children": []
                        }
                      ],
                      "commander": {
                        "id": "cmd59",
                        "name": "Cmd. Tomahawk"
                      }
                    },
                    {
                      "id": "sq74",
                      "name": "5 Sqd",
                      "type": "squad",
                      "position": {
                        "lat": 46.51087,
                        "lon": 8.104142,
                        "alt": 2524
                      },
                      "children": [
                        {
                          "id": "ind61",
                          "name": "Ind. Warlock",
                          "type": "individual",
                          "position": {
                            "lat": 46.511666,
                            "lon": 8.105223,
                            "alt": 2525
                          },
                          "children": []
                        },
                        {
                          "id": "ind62",
                          "name": "Ind. Ares",
                          "type": "individual",
                          "position": {
                            "lat": 46.511026,
                            "lon": 8.104748,
                            "alt": 2555
                          },
                          "children": []
                        },
                        {
                          "id": "ind63",
                          "name": "Ind. Raptor",
                          "type": "individual",
                          "position": {
                            "lat": 46.511158,
                            "lon": 8.104707,
                            "alt": 2511
                          },
                          "children": []
                        },
                        {
                          "id": "ind64",
                          "name": "Ind. Bulldog",
                          "type": "individual",
                          "position": {
                            "lat": 46.511133,
                            "lon": 8.104578,
                            "alt": 2558
                          },
                          "children": []
                        },
                        {
                          "id": "ind65",
                          "name": "Ind. Striker",
                          "type": "individual",
                          "position": {
                            "lat": 46.511236,
                            "lon": 8.104521,
                            "alt": 2497
                          },
                          "children": []
                        },
                        {
                          "id": "ind66",
                          "name": "Ind. Overlord",
                          "type": "individual",
                          "position": {
                            "lat": 46.511825,
                            "lon": 8.104736,
                            "alt": 2525
                          },
                          "children": []
                        },
                        {
                          "id": "ind67",
                          "name": "Ind. Sabre",
                          "type": "individual",
                          "position": {
                            "lat": 46.511772,
                            "lon": 8.104591,
                            "alt": 2528
                          },
                          "children": []
                        },
                        {
                          "id": "ind68",
                          "name": "Ind. Talon",
                          "type": "individual",
                          "position": {
                            "lat": 46.511144,
                            "lon": 8.104124,
                            "alt": 2464
                          },
                          "children": []
                        },
                        {
                          "id": "ind69",
                          "name": "Ind. Bravo",
                          "type": "individual",
                          "position": {
                            "lat": 46.511335,
                            "lon": 8.104115,
                            "alt": 2465
                          },
                          "children": []
                        },
                        {
                          "id": "ind70",
                          "name": "Ind. Spartan",
                          "type": "individual",
                          "position": {
                            "lat": 46.511888,
                            "lon": 8.104311,
                            "alt": 2499
                          },
                          "children": []
                        },
                        {
                          "id": "ind71",
                          "name": "Ind. Titan",
                          "type": "individual",
                          "position": {
                            "lat": 46.511931,
                            "lon": 8.10422,
                            "alt": 2536
                          },
                          "children": []
                        },
                        {
                          "id": "ind72",
                          "name": "Ind. Nomad",
                          "type": "individual",
                          "position": {
                            "lat": 46.511441,
                            "lon": 8.103829,
                            "alt": 2498
                          },
                          "children": []
                        }
                      ],
                      "commander": {
                        "id": "cmd73",
                        "name": "Cmd. Blaze"
                      }
                    },
                    {
                      "id": "sq88",
                      "name": "6 Sqd",
                      "type": "squad",
                      "position": {
                        "lat": 46.511181,
                        "lon": 8.102905,
                        "alt": 2497
                      },
                      "children": [
                        {
                          "id": "ind75",
                          "name": "Ind. Hammer",
                          "type": "individual",
                          "position": {
                            "lat": 46.511708,
                            "lon": 8.103839,
                            "alt": 2467
                          },
                          "children": []
                        },
                        {
                          "id": "ind76",
                          "name": "Ind. Iron",
                          "type": "individual",
                          "position": {
                            "lat": 46.511966,
                            "lon": 8.10387,
                            "alt": 2513
                          },
                          "children": []
                        },
                        {
                          "id": "ind77",
                          "name": "Ind. Javelin",
                          "type": "individual",
                          "position": {
                            "lat": 46.51207,
                            "lon": 8.103815,
                            "alt": 2467
                          },
                          "children": []
                        },
                        {
                          "id": "ind78",
                          "name": "Ind. Knight",
                          "type": "individual",
                          "position": {
                            "lat": 46.511995,
                            "lon": 8.103656,
                            "alt": 2532
                          },
                          "children": []
                        },
                        {
                          "id": "ind79",
                          "name": "Ind. Lancer",
                          "type": "individual",
                          "position": {
                            "lat": 46.512085,
                            "lon": 8.103592,
                            "alt": 2529
                          },
                          "children": []
                        },
                        {
                          "id": "ind80",
                          "name": "Ind. Storm",
                          "type": "individual",
                          "position": {
                            "lat": 46.511522,
                            "lon": 8.103157,
                            "alt": 2525
                          },
                          "children": []
                        },
                        {
                          "id": "ind81",
                          "name": "Ind. Tempest",
                          "type": "individual",
                          "position": {
                            "lat": 46.511643,
                            "lon": 8.10311,
                            "alt": 2471
                          },
                          "children": []
                        },
                        {
                          "id": "ind82",
                          "name": "Ind. Valkyrie",
                          "type": "individual",
                          "position": {
                            "lat": 46.512079,
                            "lon": 8.103243,
                            "alt": 2491
                          },
                          "children": []
                        },
                        {
                          "id": "ind83",
                          "name": "Ind. Apex",
                          "type": "individual",
                          "position": {
                            "lat": 46.511559,
                            "lon": 8.102832,
                            "alt": 2540
                          },
                          "children": []
                        },
                        {
                          "id": "ind84",
                          "name": "Ind. Fury",
                          "type": "individual",
                          "position": {
                            "lat": 46.511922,
                            "lon": 8.102923,
                            "alt": 2548
                          },
                          "children": []
                        },
                        {
                          "id": "ind85",
                          "name": "Ind. Grizzly",
                          "type": "individual",
                          "position": {
                            "lat": 46.512104,
                            "lon": 8.102911,
                            "alt": 2488
                          },
                          "children": []
                        },
                        {
                          "id": "ind86",
                          "name": "Ind. Hornet",
                          "type": "individual",
                          "position": {
                            "lat": 46.511568,
                            "lon": 8.102491,
                            "alt": 2497
                          },
                          "children": []
                        }
                      ],
                      "commander": {
                        "id": "cmd87",
                        "name": "Cmd. Inferno"
                      }
                    }
                  ],
                  "commander": {
                    "id": "cmd89",
                    "name": "Cmd. Neptune"
                  },
                  "staff": [
                    {
                      "id": "staff91",
                      "name": "Stf. Odin",
                      "position": {
                        "lat": 46.509962,
                        "lon": 8.103458,
                        "alt": 2471
                      }
                    },
                    {
                      "id": "staff92",
                      "name": "Stf. Patriot",
                      "position": {
                        "lat": 46.510007,
                        "lon": 8.103551,
                        "alt": 2471
                      }
                    }
                  ]
                },
                {
                  "id": "pl136",
                  "name": "3 Plt",
                  "type": "platoon",
                  "position": {
                    "lat": 46.510867,
                    "lon": 8.099886,
                    "alt": 2489
                  },
                  "children": [
                    {
                      "id": "sq106",
                      "name": "7 Sqd",
                      "type": "squad",
                      "position": {
                        "lat": 46.511186,
                        "lon": 8.101489,
                        "alt": 2474
                      },
                      "children": [
                        {
                          "id": "ind93",
                          "name": "Ind. Cipher",
                          "type": "individual",
                          "position": {
                            "lat": 46.511725,
                            "lon": 8.102435,
                            "alt": 2474
                          },
                          "children": []
                        },
                        {
                          "id": "ind94",
                          "name": "Ind. Drake",
                          "type": "individual",
                          "position": {
                            "lat": 46.511553,
                            "lon": 8.10222,
                            "alt": 2541
                          },
                          "children": []
                        },
                        {
                          "id": "ind95",
                          "name": "Ind. Legion",
                          "type": "individual",
                          "position": {
                            "lat": 46.511619,
                            "lon": 8.102143,
                            "alt": 2500
                          },
                          "children": []
                        },
                        {
                          "id": "ind96",
                          "name": "Ind. Mirage",
                          "type": "individual",
                          "position": {
                            "lat": 46.512028,
                            "lon": 8.102263,
                            "alt": 2515
                          },
                          "children": []
                        },
                        {
                          "id": "ind97",
                          "name": "Ind. Spectre",
                          "type": "individual",
                          "position": {
                            "lat": 46.511756,
                            "lon": 8.101991,
                            "alt": 2542
                          },
                          "children": []
                        },
                        {
                          "id": "ind98",
                          "name": "Ind. Torque",
                          "type": "individual",
                          "position": {
                            "lat": 46.512157,
                            "lon": 8.102106,
                            "alt": 2536
                          },
                          "children": []
                        },
                        {
                          "id": "ind99",
                          "name": "Ind. Dynamo",
                          "type": "individual",
                          "position": {
                            "lat": 46.512079,
                            "lon": 8.101946,
                            "alt": 2519
                          },
                          "children": []
                        },
                        {
                          "id": "ind100",
                          "name": "Ind. Eclipse",
                          "type": "individual",
                          "position": {
                            "lat": 46.511882,
                            "lon": 8.101717,
                            "alt": 2481
                          },
                          "children": []
                        },
                        {
                          "id": "ind101",
                          "name": "Ind. Goliath",
                          "type": "individual",
                          "position": {
                            "lat": 46.512474,
                            "lon": 8.101942,
                            "alt": 2490
                          },
                          "children": []
                        },
                        {
                          "id": "ind102",
                          "name": "Ind. Hydra",
                          "type": "individual",
                          "position": {
                            "lat": 46.512055,
                            "lon": 8.101585,
                            "alt": 2525
                          },
                          "children": []
                        },
                        {
                          "id": "ind103",
                          "name": "Ind. Leopard",
                          "type": "individual",
                          "position": {
                            "lat": 46.511934,
                            "lon": 8.1014,
                            "alt": 2468
                          },
                          "children": []
                        },
                        {
                          "id": "ind104",
                          "name": "Ind. Mustang",
                          "type": "individual",
                          "position": {
                            "lat": 46.51205,
                            "lon": 8.101351,
                            "alt": 2466
                          },
                          "children": []
                        }
                      ],
                      "commander": {
                        "id": "cmd105",
                        "name": "Cmd. Nova"
                      }
                    },
                    {
                      "id": "sq120",
                      "name": "8 Sqd",
                      "type": "squad",
                      "position": {
                        "lat": 46.512037,
                        "lon": 8.10056,
                        "alt": 2531
                      },
                      "children": [
                        {
                          "id": "ind107",
                          "name": "Ind. Orion",
                          "type": "individual",
                          "position": {
                            "lat": 46.512458,
                            "lon": 8.101442,
                            "alt": 2504
                          },
                          "children": []
                        },
                        {
                          "id": "ind108",
                          "name": "Ind. Phantom",
                          "type": "individual",
                          "position": {
                            "lat": 46.512539,
                            "lon": 8.101373,
                            "alt": 2473
                          },
                          "children": []
                        },
                        {
                          "id": "ind109",
                          "name": "Ind. Viking",
                          "type": "individual",
                          "position": {
                            "lat": 46.512695,
                            "lon": 8.101348,
                            "alt": 2449
                          },
                          "children": []
                        },
                        {
                          "id": "ind110",
                          "name": "Ind. Wolverine",
                          "type": "individual",
                          "position": {
                            "lat": 46.512468,
                            "lon": 8.1011,
                            "alt": 2451
                          },
                          "children": []
                        },
                        {
                          "id": "ind111",
                          "name": "Ind. Zenith",
                          "type": "individual",
                          "position": {
                            "lat": 46.512523,
                            "lon": 8.101016,
                            "alt": 2514
                          },
                          "children": []
                        },
                        {
                          "id": "ind112",
                          "name": "Ind. Atlas",
                          "type": "individual",
                          "position": {
                            "lat": 46.512373,
                            "lon": 8.100814,
                            "alt": 2512
                          },
                          "children": []
                        },
                        {
                          "id": "ind113",
                          "name": "Ind. Bandit",
                          "type": "individual",
                          "position": {
                            "lat": 46.512811,
                            "lon": 8.100953,
                            "alt": 2489
                          },
                          "children": []
                        },
                        {
                          "id": "ind114",
                          "name": "Ind. Dagger",
                          "type": "individual",
                          "position": {
                            "lat": 46.512819,
                            "lon": 8.100842,
                            "alt": 2461
                          },
                          "children": []
                        },
                        {
                          "id": "ind115",
                          "name": "Ind. Enforcer",
                          "type": "individual",
                          "position": {
                            "lat": 46.512202,
                            "lon": 8.100366,
                            "alt": 2463
                          },
                          "children": []
                        },
                        {
                          "id": "ind116",
                          "name": "Ind. Foxhound",
                          "type": "individual",
                          "position": {
                            "lat": 46.512679,
                            "lon": 8.100529,
                            "alt": 2538
                          },
                          "children": []
                        },
                        {
                          "id": "ind117",
                          "name": "Ind. Gunner",
                          "type": "individual",
                          "position": {
                            "lat": 46.5123,
                            "lon": 8.100192,
                            "alt": 2477
                          },
                          "children": []
                        },
                        {
                          "id": "ind118",
                          "name": "Ind. Hercules",
                          "type": "individual",
                          "position": {
                            "lat": 46.512309,
                            "lon": 8.100081,
                            "alt": 2526
                          },
                          "children": []
                        }
                      ],
                      "commander": {
                        "id": "cmd119",
                        "name": "Cmd. Juggernaut"
                      }
                    },
                    {
                      "id": "sq134",
                      "name": "9 Sqd",
                      "type": "squad",
                      "position": {
                        "lat": 46.512181,
                        "lon": 8.099245,
                        "alt": 2452
                      },
                      "children": [
                        {
                          "id": "ind121",
                          "name": "Ind. Kodiak",
                          "type": "individual",
                          "position": {
                            "lat": 46.513003,
                            "lon": 8.100368,
                            "alt": 2459
                          },
                          "children": []
                        },
                        {
                          "id": "ind122",
                          "name": "Ind. Lynx",
                          "type": "individual",
                          "position": {
                            "lat": 46.512863,
                            "lon": 8.100169,
                            "alt": 2525
                          },
                          "children": []
                        },
                        {
                          "id": "ind123",
                          "name": "Ind. Mantis",
                          "type": "individual",
                          "position": {
                            "lat": 46.512258,
                            "lon": 8.099697,
                            "alt": 2456
                          },
                          "children": []
                        },
                        {
                          "id": "ind124",
                          "name": "Ind. Bishop",
                          "type": "individual",
                          "position": {
                            "lat": 46.512353,
                            "lon": 8.099636,
                            "alt": 2494
                          },
                          "children": []
                        },
                        {
                          "id": "ind125",
                          "name": "Ind. Castle",
                          "type": "individual",
                          "position": {
                            "lat": 46.512919,
                            "lon": 8.099855,
                            "alt": 2456
                          },
                          "children": []
                        },
                        {
                          "id": "ind126",
                          "name": "Ind. Draco",
                          "type": "individual",
                          "position": {
                            "lat": 46.512983,
                            "lon": 8.099777,
                            "alt": 2482
                          },
                          "children": []
                        },
                        {
                          "id": "ind127",
                          "name": "Ind. Enigma",
                          "type": "individual",
                          "position": {
                            "lat": 46.512867,
                            "lon": 8.099592,
                            "alt": 2486
                          },
                          "children": []
                        },
                        {
                          "id": "ind128",
                          "name": "Ind. Firestorm",
                          "type": "individual",
                          "position": {
                            "lat": 46.513194,
                            "lon": 8.09967,
                            "alt": 2458
                          },
                          "children": []
                        },
                        {
                          "id": "ind129",
                          "name": "Ind. Quicksilver",
                          "type": "individual",
                          "position": {
                            "lat": 46.513034,
                            "lon": 8.099459,
                            "alt": 2494
                          },
                          "children": []
                        },
                        {
                          "id": "ind130",
                          "name": "Ind. Ronin",
                          "type": "individual",
                          "position": {
                            "lat": 46.512524,
                            "lon": 8.099042,
                            "alt": 2532
                          },
                          "children": []
                        },
                        {
                          "id": "ind131",
                          "name": "Ind. Umbra",
                          "type": "individual",
                          "position": {
                            "lat": 46.512478,
                            "lon": 8.098899,
                            "alt": 2456
                          },
                          "children": []
                        },
                        {
                          "id": "ind132",
                          "name": "Ind. Vertex",
                          "type": "individual",
                          "position": {
                            "lat": 46.51257,
                            "lon": 8.098837,
                            "alt": 2478
                          },
                          "children": []
                        }
                      ],
                      "commander": {
                        "id": "cmd133",
                        "name": "Cmd. Wildfire"
                      }
                    }
                  ],
                  "commander": {
                    "id": "cmd135",
                    "name": "Cmd. Xenon"
                  },
                  "staff": [
                    {
                      "id": "staff137",
                      "name": "Stf. Yeti",
                      "position": {
                        "lat": 46.510893,
                        "lon": 8.100065,
                        "alt": 2489
                      }
                    },
                    {
                      "id": "staff138",
                      "name": "Stf. Breaker",
                      "position": {
                        "lat": 46.510905,
                        "lon": 8.100012,
                        "alt": 2489
                      }
                    }
                  ]
                }
              ],
              "commander": {
                "id": "cmd139",
                "name": "Cmd. Dominator"
              },
              "staff": [
                {
                  "id": "staff141",
                  "name": "Stf. Impulse",
                  "position": {
                    "lat": 46.50833,
                    "lon": 8.102919,
                    "alt": 2531
                  }
                },
                {
                  "id": "staff142",
                  "name": "Stf. Jester",
                  "position": {
                    "lat": 46.508371,
                    "lon": 8.102791,
                    "alt": 2531
                  }
                }
              ]
            },
            {
              "id": "co282",
              "name": "B Co",
              "type": "company",
              "position": {
                "lat": 46.511746,
                "lon": 8.091795,
                "alt": 2493
              },
              "children": [
                {
                  "id": "pl186",
                  "name": "11 Plt",
                  "type": "platoon",
                  "position": {
                    "lat": 46.51215,
                    "lon": 8.096361,
                    "alt": 2475
                  },
                  "children": [
                    {
                      "id": "sq156",
                      "name": "10 Sqd",
                      "type": "squad",
                      "position": {
                        "lat": 46.512369,
                        "lon": 8.097924,
                        "alt": 2482
                      },
                      "children": [
                        {
                          "id": "ind143",
                          "name": "Ind. Rogue",
                          "type": "individual",
                          "position": {
                            "lat": 46.513154,
                            "lon": 8.099032,
                            "alt": 2531
                          },
                          "children": []
                        },
                        {
                          "id": "ind144",
                          "name": "Ind. Maverick",
                          "type": "individual",
                          "position": {
                            "lat": 46.513302,
                            "lon": 8.099004,
                            "alt": 2525
                          },
                          "children": []
                        },
                        {
                          "id": "ind145",
                          "name": "Ind. Echo",
                          "type": "individual",
                          "position": {
                            "lat": 46.512789,
                            "lon": 8.098582,
                            "alt": 2522
                          },
                          "children": []
                        },
                        {
                          "id": "ind146",
                          "name": "Ind. Foxtrot",
                          "type": "individual",
                          "position": {
                            "lat": 46.513089,
                            "lon": 8.098645,
                            "alt": 2515
                          },
                          "children": []
                        },
                        {
                          "id": "ind147",
                          "name": "Ind. Kilo",
                          "type": "individual",
                          "position": {
                            "lat": 46.513395,
                            "lon": 8.098711,
                            "alt": 2515
                          },
                          "children": []
                        },
                        {
                          "id": "ind148",
                          "name": "Ind. Lima",
                          "type": "individual",
                          "position": {
                            "lat": 46.512734,
                            "lon": 8.098201,
                            "alt": 2503
                          },
                          "children": []
                        },
                        {
                          "id": "ind149",
                          "name": "Ind. Oscar",
                          "type": "individual",
                          "position": {
                            "lat": 46.51297,
                            "lon": 8.098226,
                            "alt": 2435
                          },
                          "children": []
                        },
                        {
                          "id": "ind150",
                          "name": "Ind. Tango",
                          "type": "individual",
                          "position": {
                            "lat": 46.513136,
                            "lon": 8.098209,
                            "alt": 2485
                          },
                          "children": []
                        },
                        {
                          "id": "ind151",
                          "name": "Ind. Zulu",
                          "type": "individual",
                          "position": {
                            "lat": 46.512954,
                            "lon": 8.097984,
                            "alt": 2476
                          },
                          "children": []
                        },
                        {
                          "id": "ind152",
                          "name": "Ind. Archer",
                          "type": "individual",
                          "position": {
                            "lat": 46.51305,
                            "lon": 8.097925,
                            "alt": 2518
                          },
                          "children": []
                        },
                        {
                          "id": "ind153",
                          "name": "Ind. Hawk",
                          "type": "individual",
                          "position": {
                            "lat": 46.513272,
                            "lon": 8.097941,
                            "alt": 2477
                          },
                          "children": []
                        },
                        {
                          "id": "ind154",
                          "name": "Ind. Reaper",
                          "type": "individual",
                          "position": {
                            "lat": 46.513408,
                            "lon": 8.097906,
                            "alt": 2473
                          },
                          "children": []
                        }
                      ],
                      "commander": {
                        "id": "cmd155",
                        "name": "Cmd. Phalanx"
                      }
                    },
                    {
                      "id": "sq170",
                      "name": "11 Sqd",
                      "type": "squad",
                      "position": {
                        "lat": 46.513036,
                        "lon": 8.096888,
                        "alt": 2441
                      },
                      "children": [
                        {
                          "id": "ind157",
                          "name": "Ind. Rampart",
                          "type": "individual",
                          "position": {
                            "lat": 46.513074,
                            "lon": 8.097551,
                            "alt": 2444
                          },
                          "children": []
                        },
                        {
                          "id": "ind158",
                          "name": "Ind. Stalker",
                          "type": "individual",
                          "position": {
                            "lat": 46.513424,
                            "lon": 8.097646,
                            "alt": 2434
                          },
                          "children": []
                        },
                        {
                          "id": "ind159",
                          "name": "Ind. Tigershark",
                          "type": "individual",
                          "position": {
                            "lat": 46.513627,
                            "lon": 8.097653,
                            "alt": 2510
                          },
                          "children": []
                        },
                        {
                          "id": "ind160",
                          "name": "Ind. Vandal",
                          "type": "individual",
                          "position": {
                            "lat": 46.513491,
                            "lon": 8.097454,
                            "alt": 2508
                          },
                          "children": []
                        },
                        {
                          "id": "ind161",
                          "name": "Ind. Wraith",
                          "type": "individual",
                          "position": {
                            "lat": 46.513798,
                            "lon": 8.097523,
                            "alt": 2453
                          },
                          "children": []
                        },
                        {
                          "id": "ind162",
                          "name": "Ind. Brimstone",
                          "type": "individual",
                          "position": {
                            "lat": 46.513726,
                            "lon": 8.097364,
                            "alt": 2460
                          },
                          "children": []
                        },
                        {
                          "id": "ind163",
                          "name": "Ind. Cutlass",
                          "type": "individual",
                          "position": {
                            "lat": 46.513789,
                            "lon": 8.097285,
                            "alt": 2455
                          },
                          "children": []
                        },
                        {
                          "id": "ind164",
                          "name": "Ind. Deacon",
                          "type": "individual",
                          "position": {
                            "lat": 46.513846,
                            "lon": 8.097203,
                            "alt": 2450
                          },
                          "children": []
                        },
                        {
                          "id": "ind165",
                          "name": "Ind. Falcon",
                          "type": "individual",
                          "position": {
                            "lat": 46.513812,
                            "lon": 8.097066,
                            "alt": 2466
                          },
                          "children": []
                        },
                        {
                          "id": "ind166",
                          "name": "Ind. Griffin",
                          "type": "individual",
                          "position": {
                            "lat": 46.513841,
                            "lon": 8.096968,
                            "alt": 2508
                          },
                          "children": []
                        },
                        {
                          "id": "ind167",
                          "name": "Ind. Havoc",
                          "type": "individual",
                          "position": {
                            "lat": 46.513168,
                            "lon": 8.096445,
                            "alt": 2526
                          },
                          "children": []
                        },
                        {
                          "id": "ind168",
                          "name": "Ind. Ironside",
                          "type": "individual",
                          "position": {
                            "lat": 46.513965,
                            "lon": 8.09681,
                            "alt": 2441
                          },
                          "children": []
                        }
                      ],
                      "commander": {
                        "id": "cmd169",
                        "name": "Cmd. Jaguar"
                      }
                    },
                    {
                      "id": "sq184",
                      "name": "12 Sqd",
                      "type": "squad",
                      "position": {
                        "lat": 46.513049,
                        "lon": 8.095482,
                        "alt": 2427
                      },
                      "children": [
                        {
                          "id": "ind171",
                          "name": "Ind. Katana",
                          "type": "individual",
                          "position": {
                            "lat": 46.513491,
                            "lon": 8.096394,
                            "alt": 2473
                          },
                          "children": []
                        },
                        {
                          "id": "ind172",
                          "name": "Ind. Loki",
                          "type": "individual",
                          "position": {
                            "lat": 46.513475,
                            "lon": 8.096267,
                            "alt": 2517
                          },
                          "children": []
                        },
                        {
                          "id": "ind173",
                          "name": "Ind. Magnum",
                          "type": "individual",
                          "position": {
                            "lat": 46.513366,
                            "lon": 8.096084,
                            "alt": 2517
                          },
                          "children": []
                        },
                        {
                          "id": "ind174",
                          "name": "Ind. Northstar",
                          "type": "individual",
                          "position": {
                            "lat": 46.513386,
                            "lon": 8.09598,
                            "alt": 2505
                          },
                          "children": []
                        },
                        {
                          "id": "ind175",
                          "name": "Ind. Paladin",
                          "type": "individual",
                          "position": {
                            "lat": 46.513739,
                            "lon": 8.096079,
                            "alt": 2460
                          },
                          "children": []
                        },
                        {
                          "id": "ind176",
                          "name": "Ind. Rapier",
                          "type": "individual",
                          "position": {
                            "lat": 46.514091,
                            "lon": 8.096178,
                            "alt": 2465
                          },
                          "children": []
                        },
                        {
                          "id": "ind177",
                          "name": "Ind. Sable",
                          "type": "individual",
                          "position": {
                            "lat": 46.514134,
                            "lon": 8.096088,
                            "alt": 2481
                          },
                          "children": []
                        },
                        {
                          "id": "ind178",
                          "name": "Ind. Templar",
                          "type": "individual",
                          "position": {
                            "lat": 46.513494,
                            "lon": 8.095579,
                            "alt": 2427
                          },
                          "children": []
                        },
                        {
                          "id": "ind179",
                          "name": "Ind. Uppercut",
                          "type": "individual",
                          "position": {
                            "lat": 46.514025,
                            "lon": 8.095788,
                            "alt": 2515
                          },
                          "children": []
                        },
                        {
                          "id": "ind180",
                          "name": "Ind. Vigil",
                          "type": "individual",
                          "position": {
                            "lat": 46.514187,
                            "lon": 8.095771,
                            "alt": 2480
                          },
                          "children": []
                        },
                        {
                          "id": "ind181",
                          "name": "Ind. Warpath",
                          "type": "individual",
                          "position": {
                            "lat": 46.513839,
                            "lon": 8.095441,
                            "alt": 2431
                          },
                          "children": []
                        },
                        {
                          "id": "ind182",
                          "name": "Ind. Yellowjacket",
                          "type": "individual",
                          "position": {
                            "lat": 46.513682,
                            "lon": 8.095228,
                            "alt": 2470
                          },
                          "children": []
                        }
                      ],
                      "commander": {
                        "id": "cmd183",
                        "name": "Cmd. Zero"
                      }
                    }
                  ],
                  "commander": {
                    "id": "cmd185",
                    "name": "Cmd. Anvil"
                  },
                  "staff": [
                    {
                      "id": "staff187",
                      "name": "Stf. Barrage",
                      "position": {
                        "lat": 46.512288,
                        "lon": 8.096438,
                        "alt": 2475
                      }
                    },
                    {
                      "id": "staff188",
                      "name": "Stf. Claymore",
                      "position": {
                        "lat": 46.512104,
                        "lon": 8.09621,
                        "alt": 2475
                      }
                    }
                  ]
                },
                {
                  "id": "pl232",
                  "name": "12 Plt",
                  "type": "platoon",
                  "position": {
                    "lat": 46.512951,
                    "lon": 8.092553,
                    "alt": 2437
                  },
                  "children": [
                    {
                      "id": "sq202",
                      "name": "13 Sqd",
                      "type": "squad",
                      "position": {
                        "lat": 46.513326,
                        "lon": 8.094233,
                        "alt": 2438
                      },
                      "children": [
                        {
                          "id": "ind189",
                          "name": "Ind. Dire",
                          "type": "individual",
                          "position": {
                            "lat": 46.513996,
                            "lon": 8.095289,
                            "alt": 2438
                          },
                          "children": []
                        },
                        {
                          "id": "ind190",
                          "name": "Ind. Epoch",
                          "type": "individual",
                          "position": {
                            "lat": 46.51399,
                            "lon": 8.095169,
                            "alt": 2510
                          },
                          "children": []
                        },
                        {
                          "id": "ind191",
                          "name": "Ind. Frostbite",
                          "type": "individual",
                          "position": {
                            "lat": 46.513892,
                            "lon": 8.094992,
                            "alt": 2453
                          },
                          "children": []
                        },
                        {
                          "id": "ind192",
                          "name": "Ind. Galahad",
                          "type": "individual",
                          "position": {
                            "lat": 46.514124,
                            "lon": 8.095018,
                            "alt": 2505
                          },
                          "children": []
                        },
                        {
                          "id": "ind193",
                          "name": "Ind. Hellfire",
                          "type": "individual",
                          "position": {
                            "lat": 46.514376,
                            "lon": 8.095057,
                            "alt": 2498
                          },
                          "children": []
                        },
                        {
                          "id": "ind194",
                          "name": "Ind. Ibex",
                          "type": "individual",
                          "position": {
                            "lat": 46.51412,
                            "lon": 8.094782,
                            "alt": 2506
                          },
                          "children": []
                        },
                        {
                          "id": "ind195",
                          "name": "Ind. Joker",
                          "type": "individual",
                          "position": {
                            "lat": 46.514026,
                            "lon": 8.094607,
                            "alt": 2517
                          },
                          "children": []
                        },
                        {
                          "id": "ind196",
                          "name": "Ind. Krieg",
                          "type": "individual",
                          "position": {
                            "lat": 46.514132,
                            "lon": 8.094556,
                            "alt": 2479
                          },
                          "children": []
                        },
                        {
                          "id": "ind197",
                          "name": "Ind. Locust",
                          "type": "individual",
                          "position": {
                            "lat": 46.51413,
                            "lon": 8.094438,
                            "alt": 2502
                          },
                          "children": []
                        },
                        {
                          "id": "ind198",
                          "name": "Ind. Mace",
                          "type": "individual",
                          "position": {
                            "lat": 46.514375,
                            "lon": 8.094473,
                            "alt": 2470
                          },
                          "children": []
                        },
                        {
                          "id": "ind199",
                          "name": "Ind. Nightfall",
                          "type": "individual",
                          "position": {
                            "lat": 46.514152,
                            "lon": 8.094219,
                            "alt": 2455
                          },
                          "children": []
                        },
                        {
                          "id": "ind200",
                          "name": "Ind. Ogre",
                          "type": "individual",
                          "position": {
                            "lat": 46.514076,
                            "lon": 8.094055,
                            "alt": 2466
                          },
                          "children": []
                        }
                      ],
                      "commander": {
                        "id": "cmd201",
                        "name": "Cmd. Pyre"
                      }
                    },
                    {
                      "id": "sq216",
                      "name": "14 Sqd",
                      "type": "squad",
                      "position": {
                        "lat": 46.513704,
                        "lon": 8.093014,
                        "alt": 2470
                      },
                      "children": [
                        {
                          "id": "ind203",
                          "name": "Ind. Quake",
                          "type": "individual",
                          "position": {
                            "lat": 46.51432,
                            "lon": 8.094042,
                            "alt": 2459
                          },
                          "children": []
                        },
                        {
                          "id": "ind204",
                          "name": "Ind. Reckoner",
                          "type": "individual",
                          "position": {
                            "lat": 46.514226,
                            "lon": 8.093867,
                            "alt": 2471
                          },
                          "children": []
                        },
                        {
                          "id": "ind205",
                          "name": "Ind. Scythe",
                          "type": "individual",
                          "position": {
                            "lat": 46.514411,
                            "lon": 8.093866,
                            "alt": 2465
                          },
                          "children": []
                        },
                        {
                          "id": "ind206",
                          "name": "Ind. Typhon",
                          "type": "individual",
                          "position": {
                            "lat": 46.514471,
                            "lon": 8.093787,
                            "alt": 2474
                          },
                          "children": []
                        },
                        {
                          "id": "ind207",
                          "name": "Ind. Undertow",
                          "type": "individual",
                          "position": {
                            "lat": 46.514328,
                            "lon": 8.09358,
                            "alt": 2483
                          },
                          "children": []
                        },
                        {
                          "id": "ind208",
                          "name": "Ind. Vortex",
                          "type": "individual",
                          "position": {
                            "lat": 46.514111,
                            "lon": 8.093327,
                            "alt": 2490
                          },
                          "children": []
                        },
                        {
                          "id": "ind209",
                          "name": "Ind. Wyvern",
                          "type": "individual",
                          "position": {
                            "lat": 46.51431,
                            "lon": 8.093335,
                            "alt": 2462
                          },
                          "children": []
                        },
                        {
                          "id": "ind210",
                          "name": "Ind. Crossbow",
                          "type": "individual",
                          "position": {
                            "lat": 46.514238,
                            "lon": 8.093173,
                            "alt": 2501
                          },
                          "children": []
                        },
                        {
                          "id": "ind211",
                          "name": "Ind. Bastion",
                          "type": "individual",
                          "position": {
                            "lat": 46.514386,
                            "lon": 8.093149,
                            "alt": 2421
                          },
                          "children": []
                        },
                        {
                          "id": "ind212",
                          "name": "Ind. Caliber",
                          "type": "individual",
                          "position": {
                            "lat": 46.514953,
                            "lon": 8.093387,
                            "alt": 2421
                          },
                          "children": []
                        },
                        {
                          "id": "ind213",
                          "name": "Ind. Detonate",
                          "type": "individual",
                          "position": {
                            "lat": 46.514818,
                            "lon": 8.093185,
                            "alt": 2497
                          },
                          "children": []
                        },
                        {
                          "id": "ind214",
                          "name": "Ind. Exarch",
                          "type": "individual",
                          "position": {
                            "lat": 46.514842,
                            "lon": 8.093083,
                            "alt": 2465
                          },
                          "children": []
                        }
                      ],
                      "commander": {
                        "id": "cmd215",
                        "name": "Cmd. Flare"
                      }
                    },
                    {
                      "id": "sq230",
                      "name": "15 Sqd",
                      "type": "squad",
                      "position": {
                        "lat": 46.51449,
                        "lon": 8.09208,
                        "alt": 2466
                      },
                      "children": [
                        {
                          "id": "ind217",
                          "name": "Ind. Gale",
                          "type": "individual",
                          "position": {
                            "lat": 46.515068,
                            "lon": 8.09309,
                            "alt": 2453
                          },
                          "children": []
                        },
                        {
                          "id": "ind218",
                          "name": "Ind. Hoplite",
                          "type": "individual",
                          "position": {
                            "lat": 46.51454,
                            "lon": 8.092639,
                            "alt": 2430
                          },
                          "children": []
                        },
                        {
                          "id": "ind219",
                          "name": "Ind. Invictus",
                          "type": "individual",
                          "position": {
                            "lat": 46.515099,
                            "lon": 8.092876,
                            "alt": 2498
                          },
                          "children": []
                        },
                        {
                          "id": "ind220",
                          "name": "Ind. Jolt",
                          "type": "individual",
                          "position": {
                            "lat": 46.514697,
                            "lon": 8.092504,
                            "alt": 2504
                          },
                          "children": []
                        },
                        {
                          "id": "ind221",
                          "name": "Ind. Viper",
                          "type": "individual",
                          "position": {
                            "lat": 46.514858,
                            "lon": 8.092489,
                            "alt": 2417
                          },
                          "children": []
                        },
                        {
                          "id": "ind222",
                          "name": "Ind. Falcon",
                          "type": "individual",
                          "position": {
                            "lat": 46.515153,
                            "lon": 8.092558,
                            "alt": 2452
                          },
                          "children": []
                        },
                        {
                          "id": "ind223",
                          "name": "Ind. Raptor",
                          "type": "individual",
                          "position": {
                            "lat": 46.514467,
                            "lon": 8.092007,
                            "alt": 2439
                          },
                          "children": []
                        },
                        {
                          "id": "ind224",
                          "name": "Ind. Ghost",
                          "type": "individual",
                          "position": {
                            "lat": 46.515179,
                            "lon": 8.09234,
                            "alt": 2430
                          },
                          "children": []
                        },
                        {
                          "id": "ind225",
                          "name": "Ind. Shadow",
                          "type": "individual",
                          "position": {
                            "lat": 46.51466,
                            "lon": 8.091895,
                            "alt": 2452
                          },
                          "children": []
                        },
                        {
                          "id": "ind226",
                          "name": "Ind. Phoenix",
                          "type": "individual",
                          "position": {
                            "lat": 46.515264,
                            "lon": 8.09216,
                            "alt": 2433
                          },
                          "children": []
                        },
                        {
                          "id": "ind227",
                          "name": "Ind. Thunder",
                          "type": "individual",
                          "position": {
                            "lat": 46.514697,
                            "lon": 8.091684,
                            "alt": 2484
                          },
                          "children": []
                        },
                        {
                          "id": "ind228",
                          "name": "Ind. Eagle",
                          "type": "individual",
                          "position": {
                            "lat": 46.515429,
                            "lon": 8.09203,
                            "alt": 2470
                          },
                          "children": []
                        }
                      ],
                      "commander": {
                        "id": "cmd229",
                        "name": "Cmd. Wolf"
                      }
                    }
                  ],
                  "commander": {
                    "id": "cmd231",
                    "name": "Cmd. Cobra"
                  },
                  "staff": [
                    {
                      "id": "staff233",
                      "name": "Stf. Frost",
                      "position": {
                        "lat": 46.51289,
                        "lon": 8.092452,
                        "alt": 2437
                      }
                    },
                    {
                      "id": "staff234",
                      "name": "Stf. Delta",
                      "position": {
                        "lat": 46.51295,
                        "lon": 8.092676,
                        "alt": 2437
                      }
                    }
                  ]
                },
                {
                  "id": "pl278",
                  "name": "13 Plt",
                  "type": "platoon",
                  "position": {
                    "lat": 46.514164,
                    "lon": 8.088993,
                    "alt": 2409
                  },
                  "children": [
                    {
                      "id": "sq248",
                      "name": "16 Sqd",
                      "type": "squad",
                      "position": {
                        "lat": 46.514509,
                        "lon": 8.090658,
                        "alt": 2410
                      },
                      "children": [
                        {
                          "id": "ind235",
                          "name": "Ind. Romeo",
                          "type": "individual",
                          "position": {
                            "lat": 46.515304,
                            "lon": 8.091813,
                            "alt": 2483
                          },
                          "children": []
                        },
                        {
                          "id": "ind236",
                          "name": "Ind. Ember",
                          "type": "individual",
                          "position": {
                            "lat": 46.515104,
                            "lon": 8.091568,
                            "alt": 2478
                          },
                          "children": []
                        },
                        {
                          "id": "ind237",
                          "name": "Ind. Marshal",
                          "type": "individual",
                          "position": {
                            "lat": 46.514937,
                            "lon": 8.091343,
                            "alt": 2506
                          },
                          "children": []
                        },
                        {
                          "id": "ind238",
                          "name": "Ind. Nitro",
                          "type": "individual",
                          "position": {
                            "lat": 46.514772,
                            "lon": 8.09112,
                            "alt": 2468
                          },
                          "children": []
                        },
                        {
                          "id": "ind239",
                          "name": "Ind. Onyx",
                          "type": "individual",
                          "position": {
                            "lat": 46.515167,
                            "lon": 8.091256,
                            "alt": 2433
                          },
                          "children": []
                        },
                        {
                          "id": "ind240",
                          "name": "Ind. Panther",
                          "type": "individual",
                          "position": {
                            "lat": 46.515173,
                            "lon": 8.091142,
                            "alt": 2473
                          },
                          "children": []
                        },
                        {
                          "id": "ind241",
                          "name": "Ind. Bolt",
                          "type": "individual",
                          "position": {
                            "lat": 46.515348,
                            "lon": 8.091137,
                            "alt": 2487
                          },
                          "children": []
                        },
                        {
                          "id": "ind242",
                          "name": "Ind. Kraken",
                          "type": "individual",
                          "position": {
                            "lat": 46.515185,
                            "lon": 8.090915,
                            "alt": 2408
                          },
                          "children": []
                        },
                        {
                          "id": "ind243",
                          "name": "Ind. Trident",
                          "type": "individual",
                          "position": {
                            "lat": 46.515563,
                            "lon": 8.09104,
                            "alt": 2435
                          },
                          "children": []
                        },
                        {
                          "id": "ind244",
                          "name": "Ind. Forge",
                          "type": "individual",
                          "position": {
                            "lat": 46.515336,
                            "lon": 8.090777,
                            "alt": 2445
                          },
                          "children": []
                        },
                        {
                          "id": "ind245",
                          "name": "Ind. Interceptor",
                          "type": "individual",
                          "position": {
                            "lat": 46.51501,
                            "lon": 8.090451,
                            "alt": 2412
                          },
                          "children": []
                        },
                        {
                          "id": "ind246",
                          "name": "Ind. Jackal",
                          "type": "individual",
                          "position": {
                            "lat": 46.515717,
                            "lon": 8.090786,
                            "alt": 2441
                          },
                          "children": []
                        }
                      ],
                      "commander": {
                        "id": "cmd247",
                        "name": "Cmd. Longbow"
                      }
                    },