{
  "id": "bde3641",
  "name": "1 Bde",
  "type": "brigade",
  "children": [
    {
      "id": "rgt1211",
      "name": "1 Rgt",
      "type": "regiment",
      "children": [
        {
          "id": "bn401",
          "name": "1 Bn",
          "type": "battalion",
          "children": [
            {
              "id": "co131",
              "name": "A Co",
              "type": "company",
              "children": [
                {
                  "id": "pl41",
                  "name": "1 Plt",
                  "type": "platoon",
                  "children": [
                    {
                      "id": "sq13",
                      "name": "1 Sqd",
                      "type": "squad",
                      "children": [
                        {
                          "id": "ind1",
                          "name": "Viper",
                          "type": "individual",
                          "position": {
                            "lat": 46.507481,
                            "lon": 8.102072,
                            "alt": 3226
                          },
                          "children": []
                        },
                        {
                          "id": "ind2",
                          "name": "Falcon",
                          "type": "individual",
                          "position": {
                            "lat": 46.507404,
                            "lon": 8.101916,
                            "alt": 3228
                          },
                          "children": []
                        },
                        {
                          "id": "ind3",
                          "name": "Raptor",
                          "type": "individual",
                          "position": {
                            "lat": 46.507325,
                            "lon": 8.101767,
                            "alt": 3229
                          },
                          "children": []
                        },
                        {
                          "id": "ind4",
                          "name": "Ghost",
                          "type": "individual",
                          "position": {
                            "lat": 46.50726,
                            "lon": 8.101561,
                            "alt": 3232
                          },
                          "children": []
                        },
                        {
                          "id": "ind5",
                          "name": "Shadow",
                          "type": "individual",
                          "position": {
                            "lat": 46.507104,
                            "lon": 8.101705,
                            "alt": 3224
                          },
                          "children": []
                        },
                        {
                          "id": "ind6",
                          "name": "Phoenix",
                          "type": "individual",
                          "position": {
                            "lat": 46.506964,
                            "lon": 8.101787,
                            "alt": 3218
                          },
                          "children": []
                        },
                        {
                          "id": "ind7",
                          "name": "Thunder",
                          "type": "individual",
                          "position": {
                            "lat": 46.50689,
                            "lon": 8.101619,
                            "alt": 3220
                          },
                          "children": []
                        },
                        {
                          "id": "ind8",
                          "name": "Eagle",
                          "type": "individual",
                          "position": {
                            "lat": 46.506761,
                            "lon": 8.101658,
                            "alt": 3215
                          },
                          "children": []
                        },
                        {
                          "id": "ind9",
                          "name": "Wolf",
                          "type": "individual",
                          "position": {
                            "lat": 46.506741,
                            "lon": 8.101285,
                            "alt": 3226
                          },
                          "children": []
                        },
                        {
                          "id": "ind10",
                          "name": "Cobra",
                          "type": "individual",
                          "position": {
                            "lat": 46.506607,
                            "lon": 8.101342,
                            "alt": 3221
                          },
                          "children": []
                        },
                        {
                          "id": "ind11",
                          "name": "Frost",
                          "type": "individual",
                          "position": {
                            "lat": 46.506524,
                            "lon": 8.101207,
                            "alt": 3223
                          },
                          "children": []
                        }
                      ],
                      "commander": {
                        "id": "cmd12",
                        "name": "Cmd. Delta",
                        "position": {
                          "lat": 46.506482,
                          "lon": 8.101183,
                          "alt": 3222
                        }
                      }
                    },
                    {
                      "id": "sq26",
                      "name": "2 Sqd",
                      "type": "squad",
                      "children": [
                        {
                          "id": "ind14",
                          "name": "Romeo",
                          "type": "individual",
                          "position": {
                            "lat": 46.505602,
                            "lon": 8.103171,
                            "alt": 3166
                          },
                          "children": []
                        },
                        {
                          "id": "ind15",
                          "name": "Ember",
                          "type": "individual",
                          "position": {
                            "lat": 46.505516,
                            "lon": 8.10307,
                            "alt": 3166
                          },
                          "children": []
                        },
                        {
                          "id": "ind16",
                          "name": "Marshal",
                          "type": "individual",
                          "position": {
                            "lat": 46.505362,
                            "lon": 8.103113,
                            "alt": 3163
                          },
                          "children": []
                        },
                        {
                          "id": "ind17",
                          "name": "Nitro",
                          "type": "individual",
                          "position": {
                            "lat": 46.505234,
                            "lon": 8.103101,
                            "alt": 3161
                          },
                          "children": []
                        },
                        {
                          "id": "ind18",
                          "name": "Onyx",
                          "type": "individual",
                          "position": {
                            "lat": 46.505279,
                            "lon": 8.102718,
                            "alt": 3169
                          },
                          "children": []
                        },
                        {
                          "id": "ind19",
                          "name": "Panther",
                          "type": "individual",
                          "position": {
                            "lat": 46.50516,
                            "lon": 8.102685,
                            "alt": 3168
                          },
                          "children": []
                        },
                        {
                          "id": "ind20",
                          "name": "Bolt",
                          "type": "individual",
                          "position": {
                            "lat": 46.50504,
                            "lon": 8.102657,
                            "alt": 3167
                          },
                          "children": []
                        },
                        {
                          "id": "ind21",
                          "name": "Kraken",
                          "type": "individual",
                          "position": {
                            "lat": 46.505,
                            "lon": 8.102456,
                            "alt": 3171
                          },
                          "children": []
                        },
                        {
                          "id": "ind22",
                          "name": "Trident",
                          "type": "individual",
                          "position": {
                            "lat": 46.504844,
                            "lon": 8.102503,
                            "alt": 3169
                          },
                          "children": []
                        },
                        {
                          "id": "ind23",
                          "name": "Forge",
                          "type": "individual",
                          "position": {
                            "lat": 46.504768,
                            "lon": 8.10238,
                            "alt": 3170
                          },
                          "children": []
                        },
                        {
                          "id": "ind24",
                          "name": "Interceptor",
                          "type": "individual",
                          "position": {
                            "lat": 46.50464,
                            "lon": 8.102367,
                            "alt": 3169
                          },
                          "children": []
                        }
                      ],
                      "commander": {
                        "id": "cmd25",
                        "name": "Cmd. Jackal",
                        "position": {
                          "lat": 46.505122,
                          "lon": 8.101044,
                          "alt": 3199
                        }
                      }
                    },
                    {
                      "id": "sq39",
                      "name": "3 Sqd",
                      "type": "squad",
                      "children": [
                        {
                          "id": "ind27",
                          "name": "Longbow",
                          "type": "individual",
                          "position": {
                            "lat": 46.504969,
                            "lon": 8.101032,
                            "alt": 3198
                          },
                          "children": []
                        },
                        {
                          "id": "ind28",
                          "name": "Mongoose",
                          "type": "individual",
                          "position": {
                            "lat": 46.504895,
                            "lon": 8.100911,
                            "alt": 3201
                          },
                          "children": []
                        },
                        {
                          "id": "ind29",
                          "name": "Nighthawk",
                          "type": "individual",
                          "position": {
                            "lat": 46.504871,
                            "lon": 8.100739,
                            "alt": 3205
                          },
                          "children": []
                        },
                        {
                          "id": "ind30",
                          "name": "Papa",
                          "type": "individual",
                          "position": {
                            "lat": 46.504882,
                            "lon": 8.100532,
                            "alt": 3211
                          },
                          "children": []
                        },
                        {
                          "id": "ind31",
                          "name": "Quebec",
                          "type": "individual",
                          "position": {
                            "lat": 46.504797,
                            "lon": 8.100422,
                            "alt": 3215
                          },
                          "children": []
                        },
                        {
                          "id": "ind32",
                          "name": "Sierra",
                          "type": "individual",
                          "position": {
                            "lat": 46.504672,
                            "lon": 8.100352,
                            "alt": 3217
                          },
                          "children": []
                        },
                        {
                          "id": "ind33",
                          "name": "Whiskey",
                          "type": "individual",
                          "position": {
                            "lat": 46.50469,
                            "lon": 8.100138,
                            "alt": 3223
                          },
                          "children": []
                        },
                        {
                          "id": "ind34",
                          "name": "Flint",
                          "type": "individual",
                          "position": {
                            "lat": 46.504506,
                            "lon": 8.100128,
                            "alt": 3225
                          },
                          "children": []
                        },
                        {
                          "id": "ind35",
                          "name": "Warden",
                          "type": "individual",
                          "position": {
                            "lat": 46.504449,
                            "lon": 8.09999,
                            "alt": 3229
                          },
                          "children": []
                        },
                        {
                          "id": "ind36",
                          "name": "Inferno",
                          "type": "individual",
                          "position": {
                            "lat": 46.504377,
                            "lon": 8.099867,
                            "alt": 3233
                          },
                          "children": []
                        },
                        {
                          "id": "ind37",
                          "name": "Razor",
                          "type": "individual",
                          "position": {
                            "lat": 46.504291,
                            "lon": 8.099757,
                            "alt": 3237
                          },
                          "children": []
                        }
                      ],
                      "commander": {
                        "id": "cmd38",
                        "name": "Cmd. Sentinel",
                        "position": {
                          "lat": 46.504227,
                          "lon": 8.099343,
                          "alt": 3250
                        }
                      }
                    }
                  ],
                  "commander": {
                    "id": "cmd40",
                    "name": "Cmd. Vanguard",
                    "position": {
                      "lat": 46.503588,
                      "lon": 8.097604,
                      "alt": 3303
                    }
                  },
                  "staff": [
                    {
                      "id": "staff42",
                      "name": "Stf. Gladius",
                      "position": {
                        "lat": 46.503598,
                        "lon": 8.097802,
                        "alt": 3299
                      }
                    },
                    {
                      "id": "staff43",
                      "name": "Stf. Outlaw",
                      "position": {
                        "lat": 46.503748,
                        "lon": 8.097512,
                        "alt": 3305
                      }
                    }
                  ]
                },
                {
                  "id": "pl84",
                  "name": "2 Plt",
                  "type": "platoon",
                  "children": [
                    {
                      "id": "sq56",
                      "name": "4 Sqd",
                      "type": "squad",
                      "children": [
                        {
                          "id": "ind44",
                          "name": "Arsenal",
                          "type": "individual",
                          "position": {
                            "lat": 46.504726,
                            "lon": 8.099204,
                            "alt": 3255
                          },
                          "children": []
                        },
                        {
                          "id": "ind45",
                          "name": "Icarus",
                          "type": "individual",
                          "position": {
                            "lat": 46.504837,
                            "lon": 8.098998,
                            "alt": 3262
                          },
                          "children": []
                        },
                        {
                          "id": "ind46",
                          "name": "Nemesis",
                          "type": "individual",
                          "position": {
                            "lat": 46.504803,
                            "lon": 8.098844,
                            "alt": 3267
                          },
                          "children": []
                        },
                        {
                          "id": "ind47",
                          "name": "Corsair",
                          "type": "individual",
                          "position": {
                            "lat": 46.50472,
                            "lon": 8.098709,
                            "alt": 3272
                          },
                          "children": []
                        },
                        {
                          "id": "ind48",
                          "name": "Kestrel",
                          "type": "individual",
                          "position": {
                            "lat": 46.504717,
                            "lon": 8.098544,
                            "alt": 3277
                          },
                          "children": []
                        },
                        {
                          "id": "ind49",
                          "name": "Scorpion",
                          "type": "individual",
                          "position": {
                            "lat": 46.504779,
                            "lon": 8.098355,
                            "alt": 3284
                          },
                          "children": []
                        },
                        {
                          "id": "ind50",
                          "name": "Ace",
                          "type": "individual",
                          "position": {
                            "lat": 46.50454,
                            "lon": 8.098277,
                            "alt": 3285
                          },
                          "children": []
                        },
                        {
                          "id": "ind51",
                          "name": "Revenant",
                          "type": "individual",
                          "position": {
                            "lat": 46.504752,
                            "lon": 8.098033,
                            "alt": 3293
                          },
                          "children": []
                        },
                        {
                          "id": "ind52",
                          "name": "Praetor",
                          "type": "individual",
                          "position": {
                            "lat": 46.504484,
                            "lon": 8.097965,
                            "alt": 3293
                          },
                          "children": []
                        },
                        {
                          "id": "ind53",
                          "name": "Centurion",
                          "type": "individual",
                          "position": {
                            "lat": 46.504587,
                            "lon": 8.097761,
                            "alt": 3299
                          },
                          "children": []
                        },
                        {
                          "id": "ind54",
                          "name": "Condor",
                          "type": "individual",
                          "position": {
                            "lat": 46.504577,
                            "lon": 8.097599,
                            "alt": 3303
                          },
                          "children": []
                        }
                      ],
                      "commander": {
                        "id": "cmd55",
                        "name": "Cmd. Harrier",
                        "position": {
                          "lat": 46.503835,
                          "lon": 8.098421,
                          "alt": 3282
                        }
                      }
                    },
                    {
                      "id": "sq69",
                      "name": "5 Sqd",
                      "type": "squad",
                      "children": [
                        {
                          "id": "ind57",
                          "name": "Monarch",
                          "type": "individual",
                          "position": {
                            "lat": 46.503911,
                            "lon": 8.097616,
                            "alt": 3301
                          },
                          "children": []
                        },
                        {
                          "id": "ind58",
                          "name": "Sovereign",
                          "type": "individual",
                          "position": {
                            "lat": 46.50389,
                            "lon": 8.097458,
                            "alt": 3305
                          },
                          "children": []
                        },
                        {
                          "id": "ind59",
                          "name": "Sledgehammer",
                          "type": "individual",
                          "position": {
                            "lat": 46.503893,
                            "lon": 8.097294,
                            "alt": 3310
                          },
                          "children": []
                        },
                        {
                          "id": "ind60",
                          "name": "Tomahawk",
                          "type": "individual",
                          "position": {
                            "lat": 46.503868,
                            "lon": 8.097137,
                            "alt": 3314
                          },
                          "children": []
                        },
                        {
                          "id": "ind61",
                          "name": "Warlock",
                          "type": "individual",
                          "position": {
                            "lat": 46.504049,
                            "lon": 8.096924,
                            "alt": 3320
                          },
                          "children": []
                        },
                        {
                          "id": "ind62",
                          "name": "Ares",
                          "type": "individual",
                          "position": {
                            "lat": 46.504017,
                            "lon": 8.096769,
                            "alt": 3325
                          },
                          "children": []
                        },
                        {
                          "id": "ind63",
                          "name": "Raptor",
                          "type": "individual",
                          "position": {
                            "lat": 46.503845,
                            "lon": 8.096652,
                            "alt": 3328
                          },
                          "children": []
                        },
                        {
                          "id": "ind64",
                          "name": "Bulldog",
                          "type": "individual",
                          "position": {
                            "lat": 46.50396,
                            "lon": 8.096457,
                            "alt": 3332
                          },
                          "children": []
                        },
                        {
                          "id": "ind65",
                          "name": "Striker",
                          "type": "individual",
                          "position": {
                            "lat": 46.503742,
                            "lon": 8.096352,
                            "alt": 3334
                          },
                          "children": []
                        },
                        {
                          "id": "ind66",
                          "name": "Overlord",
                          "type": "individual",
                          "position": {
                            "lat": 46.503899,
                            "lon": 8.096146,
                            "alt": 3339
                          },
                          "children": []
                        },
                        {
                          "id": "ind67",
                          "name": "Sabre",
                          "type": "individual",
                          "position": {
                            "lat": 46.503906,
                            "lon": 8.09598,
                            "alt": 3343
                          },
                          "children": []
                        }
                      ],
                      "commander": {
                        "id": "cmd68",
                        "name": "Cmd. Talon",
                        "position": {
                          "lat": 46.503776,
                          "lon": 8.09598,
                          "alt": 3342
                        }
                      }
                    },
                    {
                      "id": "sq82",
                      "name": "6 Sqd",
                      "type": "squad",
                      "children": [
                        {
                          "id": "ind70",
                          "name": "Bravo",
                          "type": "individual",
                          "position": {
                            "lat": 46.50447,
                            "lon": 8.095348,
                            "alt": 3365
                          },
                          "children": []
                        },
                        {
                          "id": "ind71",
                          "name": "Spartan",
                          "type": "individual",
                          "position": {
                            "lat": 46.504339,
                            "lon": 8.095281,
                            "alt": 3365
                          },
                          "children": []
                        },
                        {
                          "id": "ind72",
                          "name": "Titan",
                          "type": "individual",
                          "position": {
                            "lat": 46.504344,
                            "lon": 8.095083,
                            "alt": 3371
                          },
                          "children": []
                        },
                        {
                          "id": "ind73",
                          "name": "Nomad",
                          "type": "individual",
                          "position": {
                            "lat": 46.504329,
                            "lon": 8.094906,
                            "alt": 3375
                          },
                          "children": []
                        },
                        {
                          "id": "ind74",
                          "name": "Blaze",
                          "type": "individual",
                          "position": {
                            "lat": 46.504128,
                            "lon": 8.094904,
                            "alt": 3372
                          },
                          "children": []
                        },
                        {
                          "id": "ind75",
                          "name": "Hammer",
                          "type": "individual",
                          "position": {
                            "lat": 46.50417,
                            "lon": 8.094672,
                            "alt": 3379
                          },
                          "children": []
                        },
                        {
                          "id": "ind76",
                          "name": "Iron",
                          "type": "individual",
                          "position": {
                            "lat": 46.504185,
                            "lon": 8.094466,
                            "alt": 3385
                          },
                          "children": []
                        },
                        {
                          "id": "ind77",
                          "name": "Javelin",
                          "type": "individual",
                          "position": {
                            "lat": 46.504081,
                            "lon": 8.094372,
                            "alt": 3386
                          },
                          "children": []
                        },
                        {
                          "id": "ind78",
                          "name": "Knight",
                          "type": "individual",
                          "position": {
                            "lat": 46.504025,
                            "lon": 8.094233,
                            "alt": 3389
                          },
                          "children": []
                        },
                        {
                          "id": "ind79",
                          "name": "Lancer",
                          "type": "individual",
                          "position": {
                            "lat": 46.503938,
                            "lon": 8.094123,
                            "alt": 3391
                          },
                          "children": []
                        },
                        {
                          "id": "ind80",
                          "name": "Storm",
                          "type": "individual",
                          "position": {
                            "lat": 46.503808,
                            "lon": 8.094055,
                            "alt": 3391
                          },
                          "children": []
                        }
                      ],
                      "commander": {
                        "id": "cmd81",
                        "name": "Cmd. Tempest",
                        "position": {
                          "lat": 46.503622,
                          "lon": 8.094176,
                          "alt": 3385
                        }
                      }
                    }
                  ],
                  "commander": {
                    "id": "cmd83",
                    "name": "Cmd. Valkyrie",
                    "position": {
                      "lat": 46.502308,
                      "lon": 8.093202,
                      "alt": 3423
                    }
                  },
                  "staff": [
                    {
                      "id": "staff85",
                      "name": "Stf. Apex",
                      "position": {
                        "lat": 46.502229,
                        "lon": 8.093099,
                        "alt": 3428
                      }
                    },
                    {
                      "id": "staff86",
                      "name": "Stf. Fury",
                      "position": {
                        "lat": 46.502185,
                        "lon": 8.093087,
                        "alt": 3429
                      }
                    }
                  ]
                },
                {
                  "id": "pl127",
                  "name": "3 Plt",
                  "type": "platoon",
                  "children": [
                    {
                      "id": "sq99",
                      "name": "7 Sqd",
                      "type": "squad",
                      "children": [
                        {
                          "id": "ind87",
                          "name": "Grizzly",
                          "type": "individual",
                          "position": {
                            "lat": 46.503485,
                            "lon": 8.093826,
                            "alt": 3393
                          },
                          "children": []
                        },
                        {
                          "id": "ind88",
                          "name": "Hornet",
                          "type": "individual",
                          "position": {
                            "lat": 46.503341,
                            "lon": 8.093893,
                            "alt": 3390
                          },
                          "children": []
                        },
                        {
                          "id": "ind89",
                          "name": "Inferno",
                          "type": "individual",
                          "position": {
                            "lat": 46.50327,
                            "lon": 8.093737,
                            "alt": 3395
                          },
                          "children": []
                        },
                        {
                          "id": "ind90",
                          "name": "Neptune",
                          "type": "individual",
                          "position": {
                            "lat": 46.503217,
                            "lon": 8.093524,
                            "alt": 3402
                          },
                          "children": []
                        },
                        {
                          "id": "ind91",
                          "name": "Odin",
                          "type": "individual",
                          "position": {
                            "lat": 46.503036,
                            "lon": 8.093703,
                            "alt": 3399
                          },
                          "children": []
                        },
                        {
                          "id": "ind92",
                          "name": "Patriot",
                          "type": "individual",
                          "position": {
                            "lat": 46.502984,
                            "lon": 8.093486,
                            "alt": 3406
                          },
                          "children": []
                        },
                        {
                          "id": "ind93",
                          "name": "Cipher",
                          "type": "individual",
                          "position": {
                            "lat": 46.502894,
                            "lon": 8.093387,
                            "alt": 3411
                          },
                          "children": []
                        },
                        {
                          "id": "ind94",
                          "name": "Drake",
                          "type": "individual",
                          "position": {
                            "lat": 46.50283,
                            "lon": 8.093207,
                            "alt": 3417
                          },
                          "children": []
                        },
                        {
                          "id": "ind95",
                          "name": "Legion",
                          "type": "individual",
                          "position": {
                            "lat": 46.502679,
                            "lon": 8.093295,
                            "alt": 3416
                          },
                          "children": []
                        },
                        {
                          "id": "ind96",
                          "name": "Mirage",
                          "type": "individual",
                          "position": {
                            "lat": 46.502589,
                            "lon": 8.093197,
                            "alt": 3420
                          },
                          "children": []
                        },
                        {
                          "id": "ind97",
                          "name": "Spectre",
                          "type": "individual",
                          "position": {
                            "lat": 46.502483,
                            "lon": 8.093146,
                            "alt": 3423
                          },
                          "children": []
                        }
                      ],
                      "commander": {
                        "id": "cmd98",
                        "name": "Cmd. Torque",
                        "position": {
                          "lat": 46.502395,
                          "lon": 8.09282,
                          "alt": 3434
                        }
                      }
                    },
                    {
                      "id": "sq112",
                      "name": "8 Sqd",
                      "type": "squad",
                      "children": [
                        {
                          "id": "ind100",
                          "name": "Dynamo",
                          "type": "individual",
                          "position": {
                            "lat": 46.501955,
                            "lon": 8.095024,
                            "alt": 3364
                          },
                          "children": []
                        },
                        {
                          "id": "ind101",
                          "name": "Eclipse",
                          "type": "individual",
                          "position": {
                            "lat": 46.501786,
                            "lon": 8.095348,
                            "alt": 3358
                          },
                          "children": []
                        },
                        {
                          "id": "ind102",
                          "name": "Goliath",
                          "type": "individual",
                          "position": {
                            "lat": 46.501731,
                            "lon": 8.094999,
                            "alt": 3369
                          },
                          "children": []
                        },
                        {
                          "id": "ind103",
                          "name": "Hydra",
                          "type": "individual",
                          "position": {
                            "lat": 46.501612,
                            "lon": 8.095029,
                            "alt": 3371
                          },
                          "children": []
                        },
                        {
                          "id": "ind104",
                          "name": "Leopard",
                          "type": "individual",
                          "position": {
                            "lat": 46.501467,
                            "lon": 8.09521,
                            "alt": 3372
                          },
                          "children": []
                        },
                        {
                          "id": "ind105",
                          "name": "Mustang",
                          "type": "individual",
                          "position": {
                            "lat": 46.501369,
                            "lon": 8.095118,
                            "alt": 3378
                          },
                          "children": []
                        },
                        {
                          "id": "ind106",
                          "name": "Nova",
                          "type": "individual",
                          "position": {
                            "lat": 46.501284,
                            "lon": 8.094948,
                            "alt": 3387
                          },
                          "children": []
                        },
                        {
                          "id": "ind107",
                          "name": "Orion",
                          "type": "individual",
                          "position": {
                            "lat": 46.5012,
                            "lon": 8.094772,
                            "alt": 3397
                          },
                          "children": []
                        },
                        {
                          "id": "ind108",
                          "name": "Phantom",
                          "type": "individual",
                          "position": {
                            "lat": 46.501086,
                            "lon": 8.094773,
                            "alt": 3402
                          },
                          "children": []
                        },
                        {
                          "id": "ind109",
                          "name": "Viking",
                          "type": "individual",
                          "position": {
                            "lat": 46.500943,
                            "lon": 8.094945,
                            "alt": 3401
                          },
                          "children": []
                        },
                        {
                          "id": "ind110",
                          "name": "Wolverine",
                          "type": "individual",
                          "position": {
                            "lat": 46.500835,
                            "lon": 8.09491,
                            "alt": 3407
                          },
                          "children": []
                        }
                      ],
                      "commander": {
                        "id": "cmd111",
                        "name": "Cmd. Zenith",
                        "position": {
                          "lat": 46.501211,
                          "lon": 8.092274,
                          "alt": 3469
                        }
                      }
                    },
                    {
                      "id": "sq125",
                      "name": "9 Sqd",
                      "type": "squad",
                      "children": [
                        {
                          "id": "ind113",
                          "name": "Atlas",
                          "type": "individual",
                          "position": {
                            "lat": 46.500928,
                            "lon": 8.093632,
                            "alt": 3441
                          },
                          "children": []
                        },
                        {
                          "id": "ind114",
                          "name": "Bandit",
                          "type": "individual",
                          "position": {
                            "lat": 46.500808,
                            "lon": 8.093672,
                            "alt": 3446
                          },
                          "children": []
                        },
                        {
                          "id": "ind115",
                          "name": "Dagger",
                          "type": "individual",
                          "position": {
                            "lat": 46.50069,
                            "lon": 8.093702,
                            "alt": 3456
                          },
                          "children": []
                        },
                        {
                          "id": "ind116",
                          "name": "Enforcer",
                          "type": "individual",
                          "position": {
                            "lat": 46.500565,
                            "lon": 8.093774,
                            "alt": 3466
                          },
                          "children": []
                        },
                        {
                          "id": "ind117",
                          "name": "Foxhound",
                          "type": "individual",
                          "position": {
                            "lat": 46.500473,
                            "lon": 8.093635,
                            "alt": 3479
                          },
                          "children": []
                        },
                        {
                          "id": "ind118",
                          "name": "Gunner",
                          "type": "individual",
                          "position": {
                            "lat": 46.500342,
                            "lon": 8.093746,
                            "alt": 3488
                          },
                          "children": []
                        },
                        {
                          "id": "ind119",
                          "name": "Hercules",
                          "type": "individual",
                          "position": {
                            "lat": 46.500278,
                            "lon": 8.09343,
                            "alt": 3504
                          },
                          "children": []
                        },
                        {
                          "id": "ind120",
                          "name": "Juggernaut",
                          "type": "individual",
                          "position": {
                            "lat": 46.500183,
                            "lon": 8.093312,
                            "alt": 3518
                          },
                          "children": []
                        },
                        {
                          "id": "ind121",
                          "name": "Kodiak",
                          "type": "individual",
                          "position": {
                            "lat": 46.500032,
                            "lon": 8.093551,
                            "alt": 3524
                          },
                          "children": []
                        },
                        {
                          "id": "ind122",
                          "name": "Lynx",
                          "type": "individual",
                          "position": {
                            "lat": 46.49996,
                            "lon": 8.093292,
                            "alt": 3541
                          },
                          "children": []
                        },
                        {
                          "id": "ind123",
                          "name": "Mantis",
                          "type": "individual",
                          "position": {
                            "lat": 46.499806,
                            "lon": 8.09355,
                            "alt": 3543
                          },
                          "children": []
                        }
                      ],
                      "commander": {
                        "id": "cmd124",
                        "name": "Cmd. Bishop",
                        "position": {
                          "lat": 46.499721,
                          "lon": 8.09226,
                          "alt": 3607
                        }
                      }
                    }
                  ],
                  "commander": {
                    "id": "cmd126",
                    "name": "Cmd. Castle",
                    "position": {
                      "lat": 46.499797,
                      "lon": 8.091291,
                      "alt": 3627
                    }
                  },
                  "staff": [
                    {
                      "id": "staff128",
                      "name": "Stf. Draco",
                      "position": {
                        "lat": 46.499665,
                        "lon": 8.091168,
                        "alt": 3652
                      }
                    },
                    {
                      "id": "staff129",
                      "name": "Stf. Enigma",
                      "position": {
                        "lat": 46.499876,
                        "lon": 8.091341,
                        "alt": 3614
                      }
                    }
                  ]
                }
              ],
              "commander": {
                "id": "cmd130",
                "name": "Cmd. Firestorm",
                "position": {
                  "lat": 46.500727,
                  "lon": 8.092194,
                  "alt": 3490
                }
              },
              "staff": [
                {
                  "id": "staff132",
                  "name": "Stf. Quicksilver",
                  "position": {
                    "lat": 46.500615,
                    "lon": 8.091998,
                    "alt": 3507
                  }
                },
                {
                  "id": "staff133",
                  "name": "Stf. Ronin",
                  "position": {
                    "lat": 46.500692,
                    "lon": 8.092005,
                    "alt": 3499
                  }
                }
              ]
            },
            {
              "id": "co264",
              "name": "B Co",
              "type": "company",
              "children": [
                {
                  "id": "pl174",
                  "name": "11 Plt",
                  "type": "platoon",
                  "children": [
                    {
                      "id": "sq146",
                      "name": "10 Sqd",
                      "type": "squad",
                      "children": [
                        {
                          "id": "ind134",
                          "name": "Umbra",
                          "type": "individual",
                          "position": {
                            "lat": 46.499423,
                            "lon": 8.094291,
                            "alt": 3539
                          },
                          "children": []
                        },
                        {
                          "id": "ind135",
                          "name": "Vertex",
                          "type": "individual",
                          "position": {
                            "lat": 46.499318,
                            "lon": 8.094239,
                            "alt": 3548
                          },
                          "children": []
                        },
                        {
                          "id": "ind136",
                          "name": "Wildfire",
                          "type": "individual",
                          "position": {
                            "lat": 46.499198,
                            "lon": 8.094243,
                            "alt": 3556
                          },
                          "children": []
                        },
                        {
                          "id": "ind137",
                          "name": "Xenon",
                          "type": "individual",
                          "position": {
                            "lat": 46.499107,
                            "lon": 8.094138,
                            "alt": 3565
                          },
                          "children": []
                        },
                        {
                          "id": "ind138",
                          "name": "Yeti",
                          "type": "individual",
                          "position": {
                            "lat": 46.499013,
                            "lon": 8.094047,
                            "alt": 3574
                          },
                          "children": []
                        },
                        {
                          "id": "ind139",
                          "name": "Breaker",
                          "type": "individual",
                          "position": {
                            "lat": 46.498914,
                            "lon": 8.093971,
                            "alt": 3583
                          },
                          "children": []
                        },
                        {
                          "id": "ind140",
                          "name": "Dominator",
                          "type": "individual",
                          "position": {
                            "lat": 46.498851,
                            "lon": 8.09376,
                            "alt": 3599
                          },
                          "children": []
                        },
                        {
                          "id": "ind141",
                          "name": "Impulse",
                          "type": "individual",
                          "position": {
                            "lat": 46.498705,
                            "lon": 8.093865,
                            "alt": 3601
                          },
                          "children": []
                        },
                        {
                          "id": "ind142",
                          "name": "Jester",
                          "type": "individual",
                          "position": {
                            "lat": 46.498587,
                            "lon": 8.093864,
                            "alt": 3607
                          },
                          "children": []
                        },
                        {
                          "id": "ind143",
                          "name": "Rogue",
                          "type": "individual",
                          "position": {
                            "lat": 46.498526,
                            "lon": 8.093644,
                            "alt": 3625
                          },
                          "children": []
                        },
                        {
                          "id": "ind144",
                          "name": "Maverick",
                          "type": "individual",
                          "position": {
                            "lat": 46.498358,
                            "lon": 8.093837,
                            "alt": 3621
                          },
                          "children": []
                        }
                      ],
                      "commander": {
                        "id": "cmd145",
                        "name": "Cmd. Echo",
                        "position": {
                          "lat": 46.498759,
                          "lon": 8.091454,
                          "alt": 3749
                        }
                      }
                    },
                    {
                      "id": "sq159",
                      "name": "11 Sqd",
                      "type": "squad",
                      "children": [
                        {
                          "id": "ind147",
                          "name": "Foxtrot",
                          "type": "individual",
                          "position": {
                            "lat": 46.498025,
                            "lon": 8.092744,
                            "alt": 3715
                          },
                          "children": []
                        },
                        {
                          "id": "ind148",
                          "name": "Kilo",
                          "type": "individual",
                          "position": {
                            "lat": 46.497788,
                            "lon": 8.092792,
                            "alt": 3715
                          },
                          "children": []
                        },
                        {
                          "id": "ind149",
                          "name": "Lima",
                          "type": "individual",
                          "position": {
                            "lat": 46.497759,
                            "lon": 8.092625,
                            "alt": 3727
                          },
                          "children": []
                        },
                        {
                          "id": "ind150",
                          "name": "Oscar",
                          "type": "individual",
                          "position": {
                            "lat": 46.497807,
                            "lon": 8.092377,
                            "alt": 3741
                          },
                          "children": []
                        },
                        {
                          "id": "ind151",
                          "name": "Tango",
                          "type": "individual",
                          "position": {
                            "lat": 46.497684,
                            "lon": 8.092307,
                            "alt": 3744
                          },
                          "children": []
                        },
                        {
                          "id": "ind152",
                          "name": "Zulu",
                          "type": "individual",
                          "position": {
                            "lat": 46.497569,
                            "lon": 8.092228,
                            "alt": 3747
                          },
                          "children": []
                        },
                        {
                          "id": "ind153",
                          "name": "Archer",
                          "type": "individual",
                          "position": {
                            "lat": 46.497587,
                            "lon": 8.092013,
                            "alt": 3754
                          },
                          "children": []
                        },
                        {
                          "id": "ind154",
                          "name": "Hawk",
                          "type": "individual",
                          "position": {
                            "lat": 46.497527,
                            "lon": 8.091877,
                            "alt": 3759
                          },
                          "children": []
                        },
                        {
                          "id": "ind155",
                          "name": "Reaper",
                          "type": "individual",
                          "position": {
                            "lat": 46.497465,
                            "lon": 8.091743,
                            "alt": 3759
                          },
                          "children": []
                        },
                        {
                          "id": "ind156",
                          "name": "Phalanx",
                          "type": "individual",
                          "position": {
                            "lat": 46.497304,
                            "lon": 8.091713,
                            "alt": 3743
                          },
                          "children": []
                        },
                        {
                          "id": "ind157",
                          "name": "Rampart",
                          "type": "individual",
                          "position": {
                            "lat": 46.497363,
                            "lon": 8.091454,
                            "alt": 3748
                          },
                          "children": []
                        }
                      ],
                      "commander": {
                        "id": "cmd158",
                        "name": "Cmd. Stalker",
                        "position": {
                          "lat": 46.497744,
                          "lon": 8.091154,
                          "alt": 3771
                        }
                      }
                    },
                    {
                      "id": "sq172",
                      "name": "12 Sqd",
                      "type": "squad",
                      "children": [
                        {
                          "id": "ind160",
                          "name": "Tigershark",
                          "type": "individual",
                          "position": {
                            "lat": 46.497893,
                            "lon": 8.090537,
                            "alt": 3772
                          },
                          "children": []
                        },
                        {
                          "id": "ind161",
                          "name": "Vandal",
                          "type": "individual",
                          "position": {
                            "lat": 46.49789,
                            "lon": 8.090371,
                            "alt": 3768
                          },
                          "children": []
                        },
                        {
                          "id": "ind162",
                          "name": "Wraith",
                          "type": "individual",
                          "position": {
                            "lat": 46.497835,
                            "lon": 8.090187,
                            "alt": 3758
                          },
                          "children": []
                        },
                        {
                          "id": "ind163",
                          "name": "Brimstone",
                          "type": "individual",
                          "position": {
                            "lat": 46.498002,
                            "lon": 8.090077,
                            "alt": 3770
                          },
                          "children": []
                        },
                        {
                          "id": "ind164",
                          "name": "Cutlass",
                          "type": "individual",
                          "position": {
                            "lat": 46.497872,
                            "lon": 8.089869,
                            "alt": 3752
                          },
                          "children": []
                        },
                        {
                          "id": "ind165",
                          "name": "Deacon",
                          "type": "individual",
                          "position": {
                            "lat": 46.497982,
                            "lon": 8.089741,
                            "alt": 3758
                          },
                          "children": []
                        },
                        {
                          "id": "ind166",
                          "name": "Falcon",
                          "type": "individual",
                          "position": {
                            "lat": 46.497966,
                            "lon": 8.08957,
                            "alt": 3752
                          },
                          "children": []
                        },
                        {
                          "id": "ind167",
                          "name": "Griffin",
                          "type": "individual",
                          "position": {
                            "lat": 46.498049,
                            "lon": 8.089432,
                            "alt": 3755
                          },
                          "children": []
                        },
                        {
                          "id": "ind168",
                          "name": "Havoc",
                          "type": "individual",
                          "position": {
                            "lat": 46.498114,
                            "lon": 8.089289,
                            "alt": 3758
                          },
                          "children": []
                        },
                        {
                          "id": "ind169",
                          "name": "Ironside",
                          "type": "individual",
                          "position": {
                            "lat": 46.498029,
                            "lon": 8.089096,
                            "alt": 3743
                          },
                          "children": []
                        },
                        {
                          "id": "ind170",
                          "name": "Jaguar",
                          "type": "individual",
                          "position": {
                            "lat": 46.498163,
                            "lon": 8.088975,
                            "alt": 3752
                          },
                          "children": []
                        }
                      ],
                      "commander": {
                        "id": "cmd171",
                        "name": "Cmd. Katana",
                        "position": {
                          "lat": 46.497533,
                          "lon": 8.088793,
                          "alt": 3681
                        }
                      }
                    }
                  ],
                  "commander": {
                    "id": "cmd173",
                    "name": "Cmd. Loki",
                    "position": {
                      "lat": 46.497036,
                      "lon": 8.088387,
                      "alt": 3598
                    }
                  },
                  "staff": [
                    {
                      "id": "staff175",
                      "name": "Stf. Magnum",
                      "position": {
                        "lat": 46.497135,
                        "lon": 8.088384,
                        "alt": 3611
                      }
                    },
                    {
                      "id": "staff176",
                      "name": "Stf. Northstar",
                      "position": {
                        "lat": 46.496915,
                        "lon": 8.088464,
                        "alt": 3586
                      }
                    }
                  ]
                },
                {
                  "id": "pl217",
                  "name": "12 Plt",
                  "type": "platoon",
                  "children": [
                    {
                      "id": "sq189",
                      "name": "13 Sqd",
                      "type": "squad",
                      "children": [
                        {
                          "id": "ind177",
                          "name": "Paladin",
                          "type": "individual",
                          "position": {
                            "lat": 46.498053,
                            "lon": 8.088605,
                            "alt": 3726
                          },
                          "children": []
                        },
                        {
                          "id": "ind178",
                          "name": "Rapier",
                          "type": "individual",
                          "position": {
                            "lat": 46.498003,
                            "lon": 8.088383,
                            "alt": 3713
                          },
                          "children": []
                        },
                        {
                          "id": "ind179",
                          "name": "Sable",
                          "type": "individual",
                          "position": {
                            "lat": 46.498248,
                            "lon": 8.088393,
                            "alt": 3738
                          },
                          "children": []
                        },
                        {
                          "id": "ind180",
                          "name": "Templar",
                          "type": "individual",
                          "position": {
                            "lat": 46.49816,
                            "lon": 8.08814,
                            "alt": 3721
                          },
                          "children": []
                        },
                        {
                          "id": "ind181",
                          "name": "Uppercut",
                          "type": "individual",
                          "position": {
                            "lat": 46.498244,
                            "lon": 8.088023,
                            "alt": 3725
                          },
                          "children": []
                        },
                        {
                          "id": "ind182",
                          "name": "Vigil",
                          "type": "individual",
                          "position": {
                            "lat": 46.498428,
                            "lon": 8.087985,
                            "alt": 3739
                          },
                          "children": []
                        },
                        {
                          "id": "ind183",
                          "name": "Warpath",
                          "type": "individual",
                          "position": {
                            "lat": 46.49847,
                            "lon": 8.087835,
                            "alt": 3737
                          },
                          "children": []
                        },
                        {
                          "id": "ind184",
                          "name": "Yellowjacket",
                          "type": "individual",
                          "position": {
                            "lat": 46.49844,
                            "lon": 8.087628,
                            "alt": 3729
                          },
                          "children": []
                        },
                        {
                          "id": "ind185",
                          "name": "Zero",
                          "type": "individual",
                          "position": {
                            "lat": 46.498415,
                            "lon": 8.087426,
                            "alt": 3718
                          },
                          "children": []
                        },
                        {
                          "id": "ind186",
                          "name": "Anvil",
                          "type": "individual",
                          "position": {
                            "lat": 46.498524,
                            "lon": 8.087329,
                            "alt": 3719
                          },
                          "children": []
                        },
                        {
                          "id": "ind187",
                          "name": "Barrage",
                          "type": "individual",
                          "position": {
                            "lat": 46.498552,
                            "lon": 8.087167,
                            "alt": 3711
                          },
                          "children": []
                        }
                      ],
                      "commander": {
                        "id": "cmd188",
                        "name": "Cmd. Claymore",
                        "position": {
                          "lat": 46.498345,
                          "lon": 8.087335,
                          "alt": 3706
                        }
                      }
                    },
                    {
                      "id": "sq202",
                      "name": "14 Sqd",
                      "type": "squad",
                      "children": [
                        {
                          "id": "ind190",
                          "name": "Dire",
                          "type": "individual",
                          "position": {
                            "lat": 46.498999,
                            "lon": 8.087312,
                            "alt": 3755
                          },
                          "children": []
                        },
                        {
                          "id": "ind191",
                          "name": "Epoch",
                          "type": "individual",
                          "position": {
                            "lat": 46.499055,
                            "lon": 8.087173,
                            "alt": 3752
                          },
                          "children": []
                        },
                        {
                          "id": "ind192",
                          "name": "Frostbite",
                          "type": "individual",
                          "position": {
                            "lat": 46.498932,
                            "lon": 8.086865,
                            "alt": 3725
                          },
                          "children": []
                        },
                        {
                          "id": "ind193",
                          "name": "Galahad",
                          "type": "individual",
                          "position": {
                            "lat": 46.499214,
                            "lon": 8.086939,
                            "alt": 3750
                          },
                          "children": []
                        },
                        {
                          "id": "ind194",
                          "name": "Hellfire",
                          "type": "individual",
                          "position": {
                            "lat": 46.499074,
                            "lon": 8.086615,
                            "alt": 3723
                          },
                          "children": []
                        },
                        {
                          "id": "ind195",
                          "name": "Ibex",
                          "type": "individual",
                          "position": {
                            "lat": 46.499176,
                            "lon": 8.086519,
                            "alt": 3723
                          },
                          "children": []
                        },
                        {
                          "id": "ind196",
                          "name": "Joker",
                          "type": "individual",
                          "position": {
                            "lat": 46.499244,
                            "lon": 8.086392,
                            "alt": 3715
                          },
                          "children": []
                        },
                        {
                          "id": "ind197",
                          "name": "Krieg",
                          "type": "individual",
                          "position": {
                            "lat": 46.49934,
                            "lon": 8.086291,
                            "alt": 3711
                          },
                          "children": []
                        },
                        {
                          "id": "ind198",
                          "name": "Locust",
                          "type": "individual",
                          "position": {
                            "lat": 46.499326,
                            "lon": 8.086085,
                            "alt": 3693
                          },
                          "children": []
                        },
                        {
                          "id": "ind199",
                          "name": "Mace",
                          "type": "individual",
                          "position": {
                            "lat": 46.499419,
                            "lon": 8.085982,
                            "alt": 3691
                          },
                          "children": []
                        },
                        {
                          "id": "ind200",
                          "name": "Nightfall",
                          "type": "individual",
                          "position": {
                            "lat": 46.499588,
                            "lon": 8.085949,
                            "alt": 3700
                          },
                          "children": []
                        }
                      ],
                      "commander": {
                        "id": "cmd201",
                        "name": "Cmd. Ogre",
                        "position": {
                          "lat": 46.498491,
                          "lon": 8.085861,
                          "alt": 3616
                        }
                      }
                    },
                    {
                      "id": "sq215",
                      "name": "15 Sqd",
                      "type": "squad",
                      "children": [
                        {
                          "id": "ind203",
                          "name": "Pyre",
                          "type": "individual",
                          "position": {
                            "lat": 46.499838,
                            "lon": 8.085976,
                            "alt": 3718
                          },
                          "children": []
                        },
                        {
                          "id": "ind204",
                          "name": "Quake",
                          "type": "individual",
                          "position": {
                            "lat": 46.499922,
                            "lon": 8.085864,
                            "alt": 3719
                          },
                          "children": []
                        },
                        {
                          "id": "ind205",
                          "name": "Reckoner",
                          "type": "individual",
                          "position": {
                            "lat": 46.500032,
                            "lon": 8.085775,
                            "alt": 3720
                          },
                          "children": []
                        },
                        {
                          "id": "ind206",
                          "name": "Scythe",
                          "type": "individual",
                          "position": {
                            "lat": 46.500174,
                            "lon": 8.085716,
                            "alt": 3723
                          },
                          "children": []
                        },
                        {
                          "id": "ind207",
                          "name": "Typhon",
                          "type": "individual",
                          "position": {
                            "lat": 46.5001,
                            "lon": 8.085456,
                            "alt": 3704
                          },
                          "children": []
                        },
                        {
                          "id": "ind208",
                          "name": "Undertow",
                          "type": "individual",
                          "position": {
                            "lat": 46.500201,
                            "lon": 8.085359,
                            "alt": 3704
                          },
                          "children": []
                        },
                        {
                          "id": "ind209",
                          "name": "Vortex",
                          "type": "individual",
                          "position": {
                            "lat": 46.500236,
                            "lon": 8.085201,
                            "alt": 3698
                          },
                          "children": []
                        },
                        {
                          "id": "ind210",
                          "name": "Wyvern",
                          "type": "individual",
                          "position": {
                            "lat": 46.500196,
                            "lon": 8.084972,
                            "alt": 3681
                          },
                          "children": []
                        },
                        {
                          "id": "ind211",
                          "name": "Crossbow",
                          "type": "individual",
                          "position": {
                            "lat": 46.500383,
                            "lon": 8.084955,
                            "alt": 3696
                          },
                          "children": []
                        },
                        {
                          "id": "ind212",
                          "name": "Bastion",
                          "type": "individual",
                          "position": {
                            "lat": 46.500399,
                            "lon": 8.084779,
                            "alt": 3684
                          },
                          "children": []
                        },
                        {
                          "id": "ind213",
                          "name": "Caliber",
                          "type": "individual",
                          "position": {
                            "lat": 46.50051,
                            "lon": 8.084691,
                            "alt": 3688
                          },
                          "children": []
                        }
                      ],
                      "commander": {
                        "id": "cmd214",
                        "name": "Cmd. Detonate",
                        "position": {
                          "lat": 46.499189,
                          "lon": 8.084754,
                          "alt": 3584
                        }
                      }
                    }
                  ],
                  "commander": {
                    "id": "cmd216",
                    "name": "Cmd. Exarch",
                    "position": {
                      "lat": 46.496178,
                      "lon": 8.083808,
                      "alt": 3394
                    }
                  },
                  "staff": [
                    {
                      "id": "staff218",
                      "name": "Stf. Flare",
                      "position": {
                        "lat": 46.49633,
                        "lon": 8.083926,
                        "alt": 3404
                      }
                    },
                    {
                      "id": "staff219",
                      "name": "Stf. Gale",
                      "position": {
                        "lat": 46.496057,
                        "lon": 8.08386,
                        "alt": 3387
                      }
                    }
                  ]
                },
                {
                  "id": "pl260",
                  "name": "13 Plt",
                  "type": "platoon",
                  "children": [
                    {
                      "id": "sq232",
                      "name": "16 Sqd",
                      "type": "squad",
                      "children": [
                        {
                          "id": "ind220",
                          "name": "Hoplite",
                          "type": "individual",
                          "position": {
                            "lat": 46.499527,
                            "lon": 8.083709,
                            "alt": 3546
                          },
                          "children": []
                        },
                        {
                          "id": "ind221",
                          "name": "Invictus",
                          "type": "individual",
                          "position": {
                            "lat": 46.499608,
                            "lon": 8.08359,
                            "alt": 3546
                          },
                          "children": []
                        },
                        {
                          "id": "ind222",
                          "name": "Jolt",
                          "type": "individual",
                          "position": {
                            "lat": 46.499566,
                            "lon": 8.083374,
                            "alt": 3536
                          },
                          "children": []
                        },
                        {
                          "id": "ind223",
                          "name": "Viper",
                          "type": "individual",
                          "position": {
                            "lat": 46.499647,
                            "lon": 8.083254,
                            "alt": 3537
                          },
                          "children": []
                        },
                        {
                          "id": "ind224",
                          "name": "Falcon",
                          "type": "individual",
                          "position": {
                            "lat": 46.49975,
                            "lon": 8.083152,
                            "alt": 3541
                          },
                          "children": []
                        },
                        {
                          "id": "ind225",
                          "name": "Raptor",
                          "type": "individual",
                          "position": {
                            "lat": 46.499647,
                            "lon": 8.082888,
                            "alt": 3536
                          },
                          "children": []
                        },
                        {
                          "id": "ind226",
                          "name": "Ghost",
                          "type": "individual",
                          "position": {
                            "lat": 46.499707,
                            "lon": 8.082753,
                            "alt": 3537
                          },
                          "children": []
                        },
                        {
                          "id": "ind227",
                          "name": "Shadow",
                          "type": "individual",
                          "position": {
                            "lat": 46.499855,
                            "lon": 8.082686,
                            "alt": 3542
                          },
                          "children": []
                        },
                        {
                          "id": "ind228",
                          "name": "Phoenix",
                          "type": "individual",
                          "position": {
                            "lat": 46.499859,
                            "lon": 8.082506,
                            "alt": 3540
                          },
                          "children": []
                        },
                        {
                          "id": "ind229",
                          "name": "Thunder",
                          "type": "individual",
                          "position": {
                            "lat": 46.499926,
                            "lon": 8.082376,
                            "alt": 3543
                          },
                          "children": []
                        },
                        {
                          "id": "ind230",
                          "name": "Eagle",
                          "type": "individual",
                          "position": {
                            "lat": 46.499957,
                            "lon": 8.082217,
                            "alt": 3545
                          },
                          "children": []
                        }
                      ],
                      "commander": {
                        "id": "cmd231",
                        "name": "Cmd. Wolf",
                        "position": {
                          "lat": 46.499858,
                          "lon": 8.083153,
                          "alt": 3545
                        }
                      }
                    },
                    {
                      "id": "sq245",
                      "name": "17 Sqd",
                      "type": "squad",
                      "children": [
                        {
                          "id": "ind233",
                          "name": "Cobra",
                          "type": "individual",
                          "position": {
                            "lat": 46.50056,
                            "lon": 8.082561,
                            "alt": 3593
                          },
                          "children": []
                        },
                        {
                          "id": "ind234",
                          "name": "Frost",
                          "type": "individual",
                          "position": {
                            "lat": 46.500769,
                            "lon": 8.082493,
                            "alt": 3609
                          },
                          "children": []
                        },
                        {
                          "id": "ind235",
                          "name": "Delta",
                          "type": "individual",
                          "position": {
                            "lat": 46.500665,
                            "lon": 8.082273,
                            "alt": 3600
                          },
                          "children": []
                        },
                        {
                          "id": "ind236",
                          "name": "Romeo",
                          "type": "individual",
                          "position": {
                            "lat": 46.500662,
                            "lon": 8.082102,
                            "alt": 3598
                          },
                          "children": []
                        },
                        {
                          "id": "ind237",
                          "name": "Ember",
                          "type": "individual",
                          "position": {
                            "lat": 46.500789,
                            "lon": 8.081994,
                            "alt": 3607
                          },
                          "children": []
                        },
                        {
                          "id": "ind238",
                          "name": "Marshal",
                          "type": "individual",
                          "position": {
                            "lat": 46.500731,
                            "lon": 8.081796,
                            "alt": 3602
                          },
                          "children": []
                        },
                        {
                          "id": "ind239",
                          "name": "Nitro",
                          "type": "individual",
                          "position": {
                            "lat": 46.500769,
                            "lon": 8.081644,
                            "alt": 3604
                          },
                          "children": []
                        },
                        {
                          "id": "ind240",
                          "name": "Onyx",
                          "type": "individual",
                          "position": {
                            "lat": 46.500833,
                            "lon": 8.081506,
                            "alt": 3609
                          },
                          "children": []
                        },
                        {
                          "id": "ind241",
                          "name": "Panther",
                          "type": "individual",
                          "position": {
                            "lat": 46.500886,
                            "lon": 8.081362,
                            "alt": 3612
                          },
                          "children": []
                        },
                        {
                          "id": "ind242",
                          "name": "Bolt",
                          "type": "individual",
                          "position": {
                            "lat": 46.501014,
                            "lon": 8.081254,
                            "alt": 3617
                          },
                          "children": []
                        },
                        {
                          "id": "ind243",
                          "name": "Kraken",
                          "type": "individual",
                          "position": {
                            "lat": 46.501099,
                            "lon": 8.081126,
                            "alt": 3622
                          },
                          "children": []
                        }
                      ],
                      "commander": {
                        "id": "cmd244",
                        "name": "Cmd. Trident",
                        "position": {
                          "lat": 46.500346,
                          "lon": 8.081507,
                          "alt": 3576
                        }
                      }
                    },
                    {
                      "id": "sq258",
                      "name": "18 Sqd",
                      "type": "squad",
                      "children": [
                        {
                          "id": "ind246",
                          "name": "Forge",
                          "type": "individual",
                          "position": {
                            "lat": 46.499959,
                            "lon": 8.080694,
                            "alt": 3563
                          },
                          "children": []
                        },
                        {
                          "id": "ind247",
                          "name": "Interceptor",
                          "type": "individual",
                          "position": {
                            "lat": 46.500012,
                            "lon": 8.080543,
                            "alt": 3569
                          },
                          "children": []
                        },
                        {
                          "id": "ind248",
                          "name": "Jackal",
                          "type": "individual",
                          "position": {
                            "lat": 46.500025,
                            "lon": 8.080383,
                            "alt": 3574
                          },
                          "children": []
                        },
                        {
                          "id": "ind249",
                          "name": "Longbow",
                          "type": "individual",
                          "position": {
                            "lat": 46.500015,
                            "lon": 8.080218,
                            "alt": 3577
                          },
                          "children": []
                        },
                        {
                          "id": "ind250",
                          "name": "Mongoose",
                          "type": "individual",
                          "position": {
                            "lat": 46.499989,
                            "lon": 8.080049,
                            "alt": 3579
                          },
                          "children": []
                        },
                        {
                          "id": "ind251",
                          "name": "Nighthawk",
                          "type": "individual",
                          "position": {
                            "lat": 46.500116,
                            "lon": 8.079915,
                            "alt": 3598
                          },
                          "children": []
                        },
                        {
                          "id": "ind252",
                          "name": "Papa",
                          "type": "individual",
                          "position": {
                            "lat": 46.500214,
                            "lon": 8.079774,
                            "alt": 3619
                          },
                          "children": []
                        },