{
  "id": "bde3884",
  "name": "1 Bde",
  "type": "brigade",
  "position": {
    "lat": 46.541861,
    "lon": 7.947969,
    "alt": 2860
  },
  "children": [
    {
      "id": "rgt1292",
      "name": "1 Rgt",
      "type": "regiment",
      "position": {
        "lat": 46.493678,
        "lon": 8.045521,
        "alt": 2535
      },
      "children": [
        {
          "id": "bn428",
          "name": "1 Bn",
          "type": "battalion",
          "position": {
            "lat": 46.496954,
            "lon": 8.087421,
            "alt": 2504
          },
          "children": [
            {
              "id": "co140",
              "name": "A Co",
              "type": "company",
              "position": {
                "lat": 46.504865,
                "lon": 8.097022,
                "alt": 2513
              },
              "children": [
                {
                  "id": "pl44",
                  "name": "1 Plt",
                  "type": "platoon",
                  "position": {
                    "lat": 46.507819,
                    "lon": 8.099504,
                    "alt": 2510
                  },
                  "children": [
                    {
                      "id": "sq14",
                      "name": "1 Sqd",
                      "type": "squad",
                      "position": {
                        "lat": 46.509121,
                        "lon": 8.099986,
                        "alt": 2480
                      },
                      "children": [
                        {
                          "id": "ind1",
                          "name": "Ind. Viper",
                          "type": "individual",
                          "position": {
                            "lat": 46.51023,
                            "lon": 8.099688,
                            "alt": 2512
                          },
                          "children": []
                        },
                        {
                          "id": "ind2",
                          "name": "Ind. Falcon",
                          "type": "individual",
                          "position": {
                            "lat": 46.509704,
                            "lon": 8.10005,
                            "alt": 2468
                          },
                          "children": []
                        },
                        {
                          "id": "ind3",
                          "name": "Ind. Raptor",
                          "type": "individual",
                          "position": {
                            "lat": 46.510234,
                            "lon": 8.09941,
                            "alt": 2477
                          },
                          "children": []
                        },
                        {
                          "id": "ind4",
                          "name": "Ind. Ghost",
                          "type": "individual",
                          "position": {
                            "lat": 46.509921,
                            "lon": 8.09957,
                            "alt": 2469
                          },
                          "children": []
                        },
                        {
                          "id": "ind5",
                          "name": "Ind. Shadow",
                          "type": "individual",
                          "position": {
                            "lat": 46.509953,
                            "lon": 8.099402,
                            "alt": 2452
                          },
                          "children": []
                        },
                        {
                          "id": "ind6",
                          "name": "Ind. Phoenix",
                          "type": "individual",
                          "position": {
                            "lat": 46.50967,
                            "lon": 8.099533,
                            "alt": 2461
                          },
                          "children": []
                        },
                        {
                          "id": "ind7",
                          "name": "Ind. Thunder",
                          "type": "individual",
                          "position": {
                            "lat": 46.509626,
                            "lon": 8.099438,
                            "alt": 2469
                          },
                          "children": []
                        },
                        {
                          "id": "ind8",
                          "name": "Ind. Eagle",
                          "type": "individual",
                          "position": {
                            "lat": 46.510021,
                            "lon": 8.098925,
                            "alt": 2494
                          },
                          "children": []
                        },
                        {
                          "id": "ind9",
                          "name": "Ind. Wolf",
                          "type": "individual",
                          "position": {
                            "lat": 46.509812,
                            "lon": 8.098987,
                            "alt": 2482
                          },
                          "children": []
                        },
                        {
                          "id": "ind10",
                          "name": "Ind. Cobra",
                          "type": "individual",
                          "position": {
                            "lat": 46.509409,
                            "lon": 8.099232,
                            "alt": 2455
                          },
                          "children": []
                        },
                        {
                          "id": "ind11",
                          "name": "Ind. Frost",
                          "type": "individual",
                          "position": {
                            "lat": 46.509364,
                            "lon": 8.099137,
                            "alt": 2464
                          },
                          "children": []
                        },
                        {
                          "id": "ind12",
                          "name": "Ind. Delta",
                          "type": "individual",
                          "position": {
                            "lat": 46.509671,
                            "lon": 8.098708,
                            "alt": 2470
                          },
                          "children": []
                        }
                      ],
                      "commander": {
                        "id": "cmd13",
                        "name": "Cmd. Romeo"
                      }
                    },
                    {
                      "id": "sq28",
                      "name": "2 Sqd",
                      "type": "squad",
                      "position": {
                        "lat": 46.508566,
                        "lon": 8.09881,
                        "alt": 2478
                      },
                      "children": [
                        {
                          "id": "ind15",
                          "name": "Ind. Ember",
                          "type": "individual",
                          "position": {
                            "lat": 46.509445,
                            "lon": 8.098747,
                            "alt": 2528
                          },
                          "children": []
                        },
                        {
                          "id": "ind16",
                          "name": "Ind. Marshal",
                          "type": "individual",
                          "position": {
                            "lat": 46.509748,
                            "lon": 8.09833,
                            "alt": 2484
                          },
                          "children": []
                        },
                        {
                          "id": "ind17",
                          "name": "Ind. Nitro",
                          "type": "individual",
                          "position": {
                            "lat": 46.50933,
                            "lon": 8.09858,
                            "alt": 2481
                          },
                          "children": []
                        },
                        {
                          "id": "ind18",
                          "name": "Ind. Onyx",
                          "type": "individual",
                          "position": {
                            "lat": 46.508971,
                            "lon": 8.098776,
                            "alt": 2535
                          },
                          "children": []
                        },
                        {
                          "id": "ind19",
                          "name": "Ind. Panther",
                          "type": "individual",
                          "position": {
                            "lat": 46.508998,
                            "lon": 8.098615,
                            "alt": 2523
                          },
                          "children": []
                        },
                        {
                          "id": "ind20",
                          "name": "Ind. Bolt",
                          "type": "individual",
                          "position": {
                            "lat": 46.509326,
                            "lon": 8.098175,
                            "alt": 2457
                          },
                          "children": []
                        },
                        {
                          "id": "ind21",
                          "name": "Ind. Kraken",
                          "type": "individual",
                          "position": {
                            "lat": 46.509303,
                            "lon": 8.09806,
                            "alt": 2470
                          },
                          "children": []
                        },
                        {
                          "id": "ind22",
                          "name": "Ind. Trident",
                          "type": "individual",
                          "position": {
                            "lat": 46.509298,
                            "lon": 8.097928,
                            "alt": 2536
                          },
                          "children": []
                        },
                        {
                          "id": "ind23",
                          "name": "Ind. Forge",
                          "type": "individual",
                          "position": {
                            "lat": 46.509163,
                            "lon": 8.097917,
                            "alt": 2475
                          },
                          "children": []
                        },
                        {
                          "id": "ind24",
                          "name": "Ind. Interceptor",
                          "type": "individual",
                          "position": {
                            "lat": 46.509069,
                            "lon": 8.097868,
                            "alt": 2518
                          },
                          "children": []
                        },
                        {
                          "id": "ind25",
                          "name": "Ind. Jackal",
                          "type": "individual",
                          "position": {
                            "lat": 46.509329,
                            "lon": 8.09749,
                            "alt": 2490
                          },
                          "children": []
                        },
                        {
                          "id": "ind26",
                          "name": "Ind. Longbow",
                          "type": "individual",
                          "position": {
                            "lat": 46.509207,
                            "lon": 8.097467,
                            "alt": 2518
                          },
                          "children": []
                        }
                      ],
                      "commander": {
                        "id": "cmd27",
                        "name": "Cmd. Mongoose"
                      }
                    },
                    {
                      "id": "sq42",
                      "name": "3 Sqd",
                      "type": "squad",
                      "position": {
                        "lat": 46.508002,
                        "lon": 8.097652,
                        "alt": 2469
                      },
                      "children": [
                        {
                          "id": "ind29",
                          "name": "Ind. Nighthawk",
                          "type": "individual",
                          "position": {
                            "lat": 46.508954,
                            "lon": 8.09754,
                            "alt": 2499
                          },
                          "children": []
                        },
                        {
                          "id": "ind30",
                          "name": "Ind. Papa",
                          "type": "individual",
                          "position": {
                            "lat": 46.509242,
                            "lon": 8.097146,
                            "alt": 2454
                          },
                          "children": []
                        },
                        {
                          "id": "ind31",
                          "name": "Ind. Quebec",
                          "type": "individual",
                          "position": {
                            "lat": 46.509058,
                            "lon": 8.097176,
                            "alt": 2476
                          },
                          "children": []
                        },
                        {
                          "id": "ind32",
                          "name": "Ind. Sierra",
                          "type": "individual",
                          "position": {
                            "lat": 46.509101,
                            "lon": 8.097002,
                            "alt": 2460
                          },
                          "children": []
                        },
                        {
                          "id": "ind33",
                          "name": "Ind. Whiskey",
                          "type": "individual",
                          "position": {
                            "lat": 46.508527,
                            "lon": 8.097383,
                            "alt": 2470
                          },
                          "children": []
                        },
                        {
                          "id": "ind34",
                          "name": "Ind. Flint",
                          "type": "individual",
                          "position": {
                            "lat": 46.508498,
                            "lon": 8.097273,
                            "alt": 2534
                          },
                          "children": []
                        },
                        {
                          "id": "ind35",
                          "name": "Ind. Warden",
                          "type": "individual",
                          "position": {
                            "lat": 46.508718,
                            "lon": 8.09694,
                            "alt": 2455
                          },
                          "children": []
                        },
                        {
                          "id": "ind36",
                          "name": "Ind. Inferno",
                          "type": "individual",
                          "position": {
                            "lat": 46.508396,
                            "lon": 8.097095,
                            "alt": 2448
                          },
                          "children": []
                        },
                        {
                          "id": "ind37",
                          "name": "Ind. Razor",
                          "type": "individual",
                          "position": {
                            "lat": 46.508341,
                            "lon": 8.097009,
                            "alt": 2466
                          },
                          "children": []
                        },
                        {
                          "id": "ind38",
                          "name": "Ind. Sentinel",
                          "type": "individual",
                          "position": {
                            "lat": 46.508439,
                            "lon": 8.096786,
                            "alt": 2451
                          },
                          "children": []
                        },
                        {
                          "id": "ind39",
                          "name": "Ind. Vanguard",
                          "type": "individual",
                          "position": {
                            "lat": 46.508663,
                            "lon": 8.096449,
                            "alt": 2512
                          },
                          "children": []
                        },
                        {
                          "id": "ind40",
                          "name": "Ind. Gladius",
                          "type": "individual",
                          "position": {
                            "lat": 46.508826,
                            "lon": 8.096167,
                            "alt": 2476
                          },
                          "children": []
                        }
                      ],
                      "commander": {
                        "id": "cmd41",
                        "name": "Cmd. Outlaw"
                      }
                    }
                  ],
                  "commander": {
                    "id": "cmd43",
                    "name": "Cmd. Arsenal"
                  },
                  "staff": [
                    {
                      "id": "staff45",
                      "name": "Stf. Icarus",
                      "position": {
                        "lat": 46.507915,
                        "lon": 8.099333,
                        "alt": 2510
                      }
                    },
                    {
                      "id": "staff46",
                      "name": "Stf. Nemesis",
                      "position": {
                        "lat": 46.507838,
                        "lon": 8.09928,
                        "alt": 2510
                      }
                    }
                  ]
                },
                {
                  "id": "pl90",
                  "name": "2 Plt",
                  "type": "platoon",
                  "position": {
                    "lat": 46.506252,
                    "lon": 8.09584,
                    "alt": 2498
                  },
                  "children": [
                    {
                      "id": "sq60",
                      "name": "4 Sqd",
                      "type": "squad",
                      "position": {
                        "lat": 46.507574,
                        "lon": 8.096356,
                        "alt": 2508
                      },
                      "children": [
                        {
                          "id": "ind47",
                          "name": "Ind. Corsair",
                          "type": "individual",
                          "position": {
                            "lat": 46.508138,
                            "lon": 8.096601,
                            "alt": 2535
                          },
                          "children": []
                        },
                        {
                          "id": "ind48",
                          "name": "Ind. Kestrel",
                          "type": "individual",
                          "position": {
                            "lat": 46.508591,
                            "lon": 8.096071,
                            "alt": 2488
                          },
                          "children": []
                        },
                        {
                          "id": "ind49",
                          "name": "Ind. Scorpion",
                          "type": "individual",
                          "position": {
                            "lat": 46.508634,
                            "lon": 8.095899,
                            "alt": 2466
                          },
                          "children": []
                        },
                        {
                          "id": "ind50",
                          "name": "Ind. Ace",
                          "type": "individual",
                          "position": {
                            "lat": 46.508138,
                            "lon": 8.096198,
                            "alt": 2484
                          },
                          "children": []
                        },
                        {
                          "id": "ind51",
                          "name": "Ind. Revenant",
                          "type": "individual",
                          "position": {
                            "lat": 46.507934,
                            "lon": 8.096243,
                            "alt": 2461
                          },
                          "children": []
                        },
                        {
                          "id": "ind52",
                          "name": "Ind. Praetor",
                          "type": "individual",
                          "position": {
                            "lat": 46.508197,
                            "lon": 8.095878,
                            "alt": 2499
                          },
                          "children": []
                        },
                        {
                          "id": "ind53",
                          "name": "Ind. Centurion",
                          "type": "individual",
                          "position": {
                            "lat": 46.508164,
                            "lon": 8.095773,
                            "alt": 2510
                          },
                          "children": []
                        },
                        {
                          "id": "ind54",
                          "name": "Ind. Condor",
                          "type": "individual",
                          "position": {
                            "lat": 46.507904,
                            "lon": 8.095865,
                            "alt": 2509
                          },
                          "children": []
                        },
                        {
                          "id": "ind55",
                          "name": "Ind. Harrier",
                          "type": "individual",
                          "position": {
                            "lat": 46.507967,
                            "lon": 8.095676,
                            "alt": 2533
                          },
                          "children": []
                        },
                        {
                          "id": "ind56",
                          "name": "Ind. Monarch",
                          "type": "individual",
                          "position": {
                            "lat": 46.507804,
                            "lon": 8.095685,
                            "alt": 2539
                          },
                          "children": []
                        },
                        {
                          "id": "ind57",
                          "name": "Ind. Sovereign",
                          "type": "individual",
                          "position": {
                            "lat": 46.508122,
                            "lon": 8.095272,
                            "alt": 2476
                          },
                          "children": []
                        },
                        {
                          "id": "ind58",
                          "name": "Ind. Sledgehammer",
                          "type": "individual",
                          "position": {
                            "lat": 46.508112,
                            "lon": 8.095147,
                            "alt": 2465
                          },
                          "children": []
                        }
                      ],
                      "commander": {
                        "id": "cmd59",
                        "name": "Cmd. Tomahawk"
                      }
                    },
                    {
                      "id": "sq74",
                      "name": "5 Sqd",
                      "type": "squad",
                      "position": {
                        "lat": 46.506983,
                        "lon": 8.095214,
                        "alt": 2508
                      },
                      "children": [
                        {
                          "id": "ind61",
                          "name": "Ind. Warlock",
                          "type": "individual",
                          "position": {
                            "lat": 46.507686,
                            "lon": 8.095349,
                            "alt": 2454
                          },
                          "children": []
                        },
                        {
                          "id": "ind62",
                          "name": "Ind. Ares",
                          "type": "individual",
                          "position": {
                            "lat": 46.50781,
                            "lon": 8.095111,
                            "alt": 2493
                          },
                          "children": []
                        },
                        {
                          "id": "ind63",
                          "name": "Ind. Raptor",
                          "type": "individual",
                          "position": {
                            "lat": 46.507521,
                            "lon": 8.095223,
                            "alt": 2503
                          },
                          "children": []
                        },
                        {
                          "id": "ind64",
                          "name": "Ind. Bulldog",
                          "type": "individual",
                          "position": {
                            "lat": 46.507603,
                            "lon": 8.09502,
                            "alt": 2513
                          },
                          "children": []
                        },
                        {
                          "id": "ind65",
                          "name": "Ind. Striker",
                          "type": "individual",
                          "position": {
                            "lat": 46.507862,
                            "lon": 8.094667,
                            "alt": 2536
                          },
                          "children": []
                        },
                        {
                          "id": "ind66",
                          "name": "Ind. Overlord",
                          "type": "individual",
                          "position": {
                            "lat": 46.50741,
                            "lon": 8.094917,
                            "alt": 2517
                          },
                          "children": []
                        },
                        {
                          "id": "ind67",
                          "name": "Ind. Sabre",
                          "type": "individual",
                          "position": {
                            "lat": 46.50736,
                            "lon": 8.094827,
                            "alt": 2485
                          },
                          "children": []
                        },
                        {
                          "id": "ind68",
                          "name": "Ind. Talon",
                          "type": "individual",
                          "position": {
                            "lat": 46.507435,
                            "lon": 8.09463,
                            "alt": 2453
                          },
                          "children": []
                        },
                        {
                          "id": "ind69",
                          "name": "Ind. Bravo",
                          "type": "individual",
                          "position": {
                            "lat": 46.507638,
                            "lon": 8.094325,
                            "alt": 2531
                          },
                          "children": []
                        },
                        {
                          "id": "ind70",
                          "name": "Ind. Spartan",
                          "type": "individual",
                          "position": {
                            "lat": 46.507489,
                            "lon": 8.094318,
                            "alt": 2511
                          },
                          "children": []
                        },
                        {
                          "id": "ind71",
                          "name": "Ind. Titan",
                          "type": "individual",
                          "position": {
                            "lat": 46.507138,
                            "lon": 8.094482,
                            "alt": 2528
                          },
                          "children": []
                        },
                        {
                          "id": "ind72",
                          "name": "Ind. Nomad",
                          "type": "individual",
                          "position": {
                            "lat": 46.507449,
                            "lon": 8.094085,
                            "alt": 2530
                          },
                          "children": []
                        }
                      ],
                      "commander": {
                        "id": "cmd73",
                        "name": "Cmd. Blaze"
                      }
                    },
                    {
                      "id": "sq88",
                      "name": "6 Sqd",
                      "type": "squad",
                      "position": {
                        "lat": 46.506789,
                        "lon": 8.093751,
                        "alt": 2542
                      },
                      "children": [
                        {
                          "id": "ind75",
                          "name": "Ind. Hammer",
                          "type": "individual",
                          "position": {
                            "lat": 46.507208,
                            "lon": 8.094134,
                            "alt": 2530
                          },
                          "children": []
                        },
                        {
                          "id": "ind76",
                          "name": "Ind. Iron",
                          "type": "individual",
                          "position": {
                            "lat": 46.50707,
                            "lon": 8.094115,
                            "alt": 2486
                          },
                          "children": []
                        },
                        {
                          "id": "ind77",
                          "name": "Ind. Javelin",
                          "type": "individual",
                          "position": {
                            "lat": 46.5074,
                            "lon": 8.093711,
                            "alt": 2496
                          },
                          "children": []
                        },
                        {
                          "id": "ind78",
                          "name": "Ind. Knight",
                          "type": "individual",
                          "position": {
                            "lat": 46.507035,
                            "lon": 8.093879,
                            "alt": 2541
                          },
                          "children": []
                        },
                        {
                          "id": "ind79",
                          "name": "Ind. Lancer",
                          "type": "individual",
                          "position": {
                            "lat": 46.507493,
                            "lon": 8.09337,
                            "alt": 2505
                          },
                          "children": []
                        },
                        {
                          "id": "ind80",
                          "name": "Ind. Storm",
                          "type": "individual",
                          "position": {
                            "lat": 46.507378,
                            "lon": 8.093333,
                            "alt": 2475
                          },
                          "children": []
                        },
                        {
                          "id": "ind81",
                          "name": "Ind. Tempest",
                          "type": "individual",
                          "position": {
                            "lat": 46.507321,
                            "lon": 8.093247,
                            "alt": 2476
                          },
                          "children": []
                        },
                        {
                          "id": "ind82",
                          "name": "Ind. Valkyrie",
                          "type": "individual",
                          "position": {
                            "lat": 46.506984,
                            "lon": 8.093392,
                            "alt": 2522
                          },
                          "children": []
                        },
                        {
                          "id": "ind83",
                          "name": "Ind. Apex",
                          "type": "individual",
                          "position": {
                            "lat": 46.507097,
                            "lon": 8.093167,
                            "alt": 2493
                          },
                          "children": []
                        },
                        {
                          "id": "ind84",
                          "name": "Ind. Fury",
                          "type": "individual",
                          "position": {
                            "lat": 46.507255,
                            "lon": 8.092905,
                            "alt": 2459
                          },
                          "children": []
                        },
                        {
                          "id": "ind85",
                          "name": "Ind. Grizzly",
                          "type": "individual",
                          "position": {
                            "lat": 46.506881,
                            "lon": 8.093081,
                            "alt": 2457
                          },
                          "children": []
                        },
                        {
                          "id": "ind86",
                          "name": "Ind. Hornet",
                          "type": "individual",
                          "position": {
                            "lat": 46.507274,
                            "lon": 8.092625,
                            "alt": 2538
                          },
                          "children": []
                        }
                      ],
                      "commander": {
                        "id": "cmd87",
                        "name": "Cmd. Inferno"
                      }
                    }
                  ],
                  "commander": {
                    "id": "cmd89",
                    "name": "Cmd. Neptune"
                  },
                  "staff": [
                    {
                      "id": "staff91",
                      "name": "Stf. Odin",
                      "position": {
                        "lat": 46.506133,
                        "lon": 8.095689,
                        "alt": 2498
                      }
                    },
                    {
                      "id": "staff92",
                      "name": "Stf. Patriot",
                      "position": {
                        "lat": 46.50627,
                        "lon": 8.095956,
                        "alt": 2498
                      }
                    }
                  ]
                },
                {
                  "id": "pl136",
                  "name": "3 Plt",
                  "type": "platoon",
                  "position": {
                    "lat": 46.504976,
                    "lon": 8.091944,
                    "alt": 2507
                  },
                  "children": [
                    {
                      "id": "sq106",
                      "name": "7 Sqd",
                      "type": "squad",
                      "position": {
                        "lat": 46.506015,
                        "lon": 8.092749,
                        "alt": 2534
                      },
                      "children": [
                        {
                          "id": "ind93",
                          "name": "Ind. Cipher",
                          "type": "individual",
                          "position": {
                            "lat": 46.506822,
                            "lon": 8.092828,
                            "alt": 2498
                          },
                          "children": []
                        },
                        {
                          "id": "ind94",
                          "name": "Ind. Drake",
                          "type": "individual",
                          "position": {
                            "lat": 46.506897,
                            "lon": 8.092637,
                            "alt": 2482
                          },
                          "children": []
                        },
                        {
                          "id": "ind95",
                          "name": "Ind. Legion",
                          "type": "individual",
                          "position": {
                            "lat": 46.507071,
                            "lon": 8.092367,
                            "alt": 2538
                          },
                          "children": []
                        },
                        {
                          "id": "ind96",
                          "name": "Ind. Mirage",
                          "type": "individual",
                          "position": {
                            "lat": 46.506678,
                            "lon": 8.092549,
                            "alt": 2534
                          },
                          "children": []
                        },
                        {
                          "id": "ind97",
                          "name": "Ind. Spectre",
                          "type": "individual",
                          "position": {
                            "lat": 46.506948,
                            "lon": 8.092202,
                            "alt": 2453
                          },
                          "children": []
                        },
                        {
                          "id": "ind98",
                          "name": "Ind. Torque",
                          "type": "individual",
                          "position": {
                            "lat": 46.506524,
                            "lon": 8.092409,
                            "alt": 2466
                          },
                          "children": []
                        },
                        {
                          "id": "ind99",
                          "name": "Ind. Dynamo",
                          "type": "individual",
                          "position": {
                            "lat": 46.506699,
                            "lon": 8.092139,
                            "alt": 2528
                          },
                          "children": []
                        },
                        {
                          "id": "ind100",
                          "name": "Ind. Eclipse",
                          "type": "individual",
                          "position": {
                            "lat": 46.506762,
                            "lon": 8.091957,
                            "alt": 2482
                          },
                          "children": []
                        },
                        {
                          "id": "ind101",
                          "name": "Ind. Goliath",
                          "type": "individual",
                          "position": {
                            "lat": 46.506759,
                            "lon": 8.091828,
                            "alt": 2527
                          },
                          "children": []
                        },
                        {
                          "id": "ind102",
                          "name": "Ind. Hydra",
                          "type": "individual",
                          "position": {
                            "lat": 46.506708,
                            "lon": 8.091738,
                            "alt": 2480
                          },
                          "children": []
                        },
                        {
                          "id": "ind103",
                          "name": "Ind. Leopard",
                          "type": "individual",
                          "position": {
                            "lat": 46.506916,
                            "lon": 8.09144,
                            "alt": 2489
                          },
                          "children": []
                        },
                        {
                          "id": "ind104",
                          "name": "Ind. Mustang",
                          "type": "individual",
                          "position": {
                            "lat": 46.506799,
                            "lon": 8.091403,
                            "alt": 2449
                          },
                          "children": []
                        }
                      ],
                      "commander": {
                        "id": "cmd105",
                        "name": "Cmd. Nova"
                      }
                    },
                    {
                      "id": "sq120",
                      "name": "8 Sqd",
                      "type": "squad",
                      "position": {
                        "lat": 46.505546,
                        "lon": 8.091508,
                        "alt": 2488
                      },
                      "children": [
                        {
                          "id": "ind107",
                          "name": "Ind. Orion",
                          "type": "individual",
                          "position": {
                            "lat": 46.506298,
                            "lon": 8.091644,
                            "alt": 2539
                          },
                          "children": []
                        },
                        {
                          "id": "ind108",
                          "name": "Ind. Phantom",
                          "type": "individual",
                          "position": {
                            "lat": 46.50659,
                            "lon": 8.091288,
                            "alt": 2506
                          },
                          "children": []
                        },
                        {
                          "id": "ind109",
                          "name": "Ind. Viking",
                          "type": "individual",
                          "position": {
                            "lat": 46.506803,
                            "lon": 8.090994,
                            "alt": 2499
                          },
                          "children": []
                        },
                        {
                          "id": "ind110",
                          "name": "Ind. Wolverine",
                          "type": "individual",
                          "position": {
                            "lat": 46.50675,
                            "lon": 8.090904,
                            "alt": 2445
                          },
                          "children": []
                        },
                        {
                          "id": "ind111",
                          "name": "Ind. Zenith",
                          "type": "individual",
                          "position": {
                            "lat": 46.506445,
                            "lon": 8.09101,
                            "alt": 2511
                          },
                          "children": []
                        },
                        {
                          "id": "ind112",
                          "name": "Ind. Atlas",
                          "type": "individual",
                          "position": {
                            "lat": 46.505973,
                            "lon": 8.091244,
                            "alt": 2471
                          },
                          "children": []
                        },
                        {
                          "id": "ind113",
                          "name": "Ind. Bandit",
                          "type": "individual",
                          "position": {
                            "lat": 46.506653,
                            "lon": 8.090589,
                            "alt": 2461
                          },
                          "children": []
                        },
                        {
                          "id": "ind114",
                          "name": "Ind. Dagger",
                          "type": "individual",
                          "position": {
                            "lat": 46.505889,
                            "lon": 8.091048,
                            "alt": 2473
                          },
                          "children": []
                        },
                        {
                          "id": "ind115",
                          "name": "Ind. Enforcer",
                          "type": "individual",
                          "position": {
                            "lat": 46.506075,
                            "lon": 8.090775,
                            "alt": 2490
                          },
                          "children": []
                        },
                        {
                          "id": "ind116",
                          "name": "Ind. Foxhound",
                          "type": "individual",
                          "position": {
                            "lat": 46.505959,
                            "lon": 8.090733,
                            "alt": 2453
                          },
                          "children": []
                        },
                        {
                          "id": "ind117",
                          "name": "Ind. Gunner",
                          "type": "individual",
                          "position": {
                            "lat": 46.505828,
                            "lon": 8.090704,
                            "alt": 2477
                          },
                          "children": []
                        },
                        {
                          "id": "ind118",
                          "name": "Ind. Hercules",
                          "type": "individual",
                          "position": {
                            "lat": 46.506479,
                            "lon": 8.090071,
                            "alt": 2476
                          },
                          "children": []
                        }
                      ],
                      "commander": {
                        "id": "cmd119",
                        "name": "Cmd. Juggernaut"
                      }
                    },
                    {
                      "id": "sq134",
                      "name": "9 Sqd",
                      "type": "squad",
                      "position": {
                        "lat": 46.50531,
                        "lon": 8.090075,
                        "alt": 2487
                      },
                      "children": [
                        {
                          "id": "ind121",
                          "name": "Ind. Kodiak",
                          "type": "individual",
                          "position": {
                            "lat": 46.506284,
                            "lon": 8.090061,
                            "alt": 2502
                          },
                          "children": []
                        },
                        {
                          "id": "ind122",
                          "name": "Ind. Lynx",
                          "type": "individual",
                          "position": {
                            "lat": 46.50606,
                            "lon": 8.090099,
                            "alt": 2457
                          },
                          "children": []
                        },
                        {
                          "id": "ind123",
                          "name": "Ind. Mantis",
                          "type": "individual",
                          "position": {
                            "lat": 46.506146,
                            "lon": 8.089905,
                            "alt": 2531
                          },
                          "children": []
                        },
                        {
                          "id": "ind124",
                          "name": "Ind. Bishop",
                          "type": "individual",
                          "position": {
                            "lat": 46.505627,
                            "lon": 8.090163,
                            "alt": 2478
                          },
                          "children": []
                        },
                        {
                          "id": "ind125",
                          "name": "Ind. Castle",
                          "type": "individual",
                          "position": {
                            "lat": 46.505681,
                            "lon": 8.089993,
                            "alt": 2488
                          },
                          "children": []
                        },
                        {
                          "id": "ind126",
                          "name": "Ind. Draco",
                          "type": "individual",
                          "position": {
                            "lat": 46.506223,
                            "lon": 8.08946,
                            "alt": 2479
                          },
                          "children": []
                        },
                        {
                          "id": "ind127",
                          "name": "Ind. Enigma",
                          "type": "individual",
                          "position": {
                            "lat": 46.505956,
                            "lon": 8.089529,
                            "alt": 2449
                          },
                          "children": []
                        },
                        {
                          "id": "ind128",
                          "name": "Ind. Firestorm",
                          "type": "individual",
                          "position": {
                            "lat": 46.505427,
                            "lon": 8.089794,
                            "alt": 2470
                          },
                          "children": []
                        },
                        {
                          "id": "ind129",
                          "name": "Ind. Quicksilver",
                          "type": "individual",
                          "position": {
                            "lat": 46.505694,
                            "lon": 8.089466,
                            "alt": 2529
                          },
                          "children": []
                        },
                        {
                          "id": "ind130",
                          "name": "Ind. Ronin",
                          "type": "individual",
                          "position": {
                            "lat": 46.505648,
                            "lon": 8.089371,
                            "alt": 2442
                          },
                          "children": []
                        },
                        {
                          "id": "ind131",
                          "name": "Ind. Umbra",
                          "type": "individual",
                          "position": {
                            "lat": 46.505591,
                            "lon": 8.089285,
                            "alt": 2509
                          },
                          "children": []
                        },
                        {
                          "id": "ind132",
                          "name": "Ind. Vertex",
                          "type": "individual",
                          "position": {
                            "lat": 46.505895,
                            "lon": 8.088929,
                            "alt": 2461
                          },
                          "children": []
                        }
                      ],
                      "commander": {
                        "id": "cmd133",
                        "name": "Cmd. Wildfire"
                      }
                    }
                  ],
                  "commander": {
                    "id": "cmd135",
                    "name": "Cmd. Xenon"
                  },
                  "staff": [
                    {
                      "id": "staff137",
                      "name": "Stf. Yeti",
                      "position": {
                        "lat": 46.505045,
                        "lon": 8.09202,
                        "alt": 2507
                      }
                    },
                    {
                      "id": "staff138",
                      "name": "Stf. Breaker",
                      "position": {
                        "lat": 46.504922,
                        "lon": 8.092107,
                        "alt": 2507
                      }
                    }
                  ]
                }
              ],
              "commander": {
                "id": "cmd139",
                "name": "Cmd. Dominator"
              },
              "staff": [
                {
                  "id": "staff141",
                  "name": "Stf. Impulse",
                  "position": {
                    "lat": 46.504985,
                    "lon": 8.097026,
                    "alt": 2513
                  }
                },
                {
                  "id": "staff142",
                  "name": "Stf. Jester",
                  "position": {
                    "lat": 46.504854,
                    "lon": 8.097282,
                    "alt": 2513
                  }
                }
              ]
            },
            {
              "id": "co282",
              "name": "B Co",
              "type": "company",
              "position": {
                "lat": 46.500284,
                "lon": 8.085473,
                "alt": 2457
              },
              "children": [
                {
                  "id": "pl186",
                  "name": "11 Plt",
                  "type": "platoon",
                  "position": {
                    "lat": 46.503233,
                    "lon": 8.088385,
                    "alt": 2507
                  },
                  "children": [
                    {
                      "id": "sq156",
                      "name": "10 Sqd",
                      "type": "squad",
                      "position": {
                        "lat": 46.504716,
                        "lon": 8.088923,
                        "alt": 2460
                      },
                      "children": [
                        {
                          "id": "ind143",
                          "name": "Ind. Rogue",
                          "type": "individual",
                          "position": {
                            "lat": 46.5056,
                            "lon": 8.088993,
                            "alt": 2478
                          },
                          "children": []
                        },
                        {
                          "id": "ind144",
                          "name": "Ind. Maverick",
                          "type": "individual",
                          "position": {
                            "lat": 46.505551,
                            "lon": 8.0889,
                            "alt": 2521
                          },
                          "children": []
                        },
                        {
                          "id": "ind145",
                          "name": "Ind. Echo",
                          "type": "individual",
                          "position": {
                            "lat": 46.505563,
                            "lon": 8.088763,
                            "alt": 2474
                          },
                          "children": []
                        },
                        {
                          "id": "ind146",
                          "name": "Ind. Foxtrot",
                          "type": "individual",
                          "position": {
                            "lat": 46.50518,
                            "lon": 8.08891,
                            "alt": 2455
                          },
                          "children": []
                        },
                        {
                          "id": "ind147",
                          "name": "Ind. Kilo",
                          "type": "individual",
                          "position": {
                            "lat": 46.505084,
                            "lon": 8.088851,
                            "alt": 2514
                          },
                          "children": []
                        },
                        {
                          "id": "ind148",
                          "name": "Ind. Lima",
                          "type": "individual",
                          "position": {
                            "lat": 46.505471,
                            "lon": 8.088444,
                            "alt": 2518
                          },
                          "children": []
                        },
                        {
                          "id": "ind149",
                          "name": "Ind. Oscar",
                          "type": "individual",
                          "position": {
                            "lat": 46.5055,
                            "lon": 8.088295,
                            "alt": 2522
                          },
                          "children": []
                        },
                        {
                          "id": "ind150",
                          "name": "Ind. Tango",
                          "type": "individual",
                          "position": {
                            "lat": 46.505243,
                            "lon": 8.088351,
                            "alt": 2489
                          },
                          "children": []
                        },
                        {
                          "id": "ind151",
                          "name": "Ind. Zulu",
                          "type": "individual",
                          "position": {
                            "lat": 46.505586,
                            "lon": 8.087977,
                            "alt": 2454
                          },
                          "children": []
                        },
                        {
                          "id": "ind152",
                          "name": "Ind. Archer",
                          "type": "individual",
                          "position": {
                            "lat": 46.505188,
                            "lon": 8.088134,
                            "alt": 2508
                          },
                          "children": []
                        },
                        {
                          "id": "ind153",
                          "name": "Ind. Hawk",
                          "type": "individual",
                          "position": {
                            "lat": 46.505134,
                            "lon": 8.088044,
                            "alt": 2461
                          },
                          "children": []
                        },
                        {
                          "id": "ind154",
                          "name": "Ind. Reaper",
                          "type": "individual",
                          "position": {
                            "lat": 46.504959,
                            "lon": 8.088042,
                            "alt": 2495
                          },
                          "children": []
                        }
                      ],
                      "commander": {
                        "id": "cmd155",
                        "name": "Cmd. Phalanx"
                      }
                    },
                    {
                      "id": "sq170",
                      "name": "11 Sqd",
                      "type": "squad",
                      "position": {
                        "lat": 46.50435,
                        "lon": 8.087614,
                        "alt": 2529
                      },
                      "children": [
                        {
                          "id": "ind157",
                          "name": "Ind. Rampart",
                          "type": "individual",
                          "position": {
                            "lat": 46.50486,
                            "lon": 8.087962,
                            "alt": 2540
                          },
                          "children": []
                        },
                        {
                          "id": "ind158",
                          "name": "Ind. Stalker",
                          "type": "individual",
                          "position": {
                            "lat": 46.505283,
                            "lon": 8.087542,
                            "alt": 2486
                          },
                          "children": []
                        },
                        {
                          "id": "ind159",
                          "name": "Ind. Tigershark",
                          "type": "individual",
                          "position": {
                            "lat": 46.505137,
                            "lon": 8.087515,
                            "alt": 2528
                          },
                          "children": []
                        },
                        {
                          "id": "ind160",
                          "name": "Ind. Vandal",
                          "type": "individual",
                          "position": {
                            "lat": 46.505322,
                            "lon": 8.08726,
                            "alt": 2491
                          },
                          "children": []
                        },
                        {
                          "id": "ind161",
                          "name": "Ind. Wraith",
                          "type": "individual",
                          "position": {
                            "lat": 46.50477,
                            "lon": 8.087515,
                            "alt": 2540
                          },
                          "children": []
                        },
                        {
                          "id": "ind162",
                          "name": "Ind. Brimstone",
                          "type": "individual",
                          "position": {
                            "lat": 46.50477,
                            "lon": 8.087387,
                            "alt": 2482
                          },
                          "children": []
                        },
                        {
                          "id": "ind163",
                          "name": "Ind. Cutlass",
                          "type": "individual",
                          "position": {
                            "lat": 46.504995,
                            "lon": 8.087104,
                            "alt": 2474
                          },
                          "children": []
                        },
                        {
                          "id": "ind164",
                          "name": "Ind. Deacon",
                          "type": "individual",
                          "position": {
                            "lat": 46.505279,
                            "lon": 8.08678,
                            "alt": 2483
                          },
                          "children": []
                        },
                        {
                          "id": "ind165",
                          "name": "Ind. Falcon",
                          "type": "individual",
                          "position": {
                            "lat": 46.50513,
                            "lon": 8.086755,
                            "alt": 2495
                          },
                          "children": []
                        },
                        {
                          "id": "ind166",
                          "name": "Ind. Griffin",
                          "type": "individual",
                          "position": {
                            "lat": 46.504549,
                            "lon": 8.08703,
                            "alt": 2492
                          },
                          "children": []
                        },
                        {
                          "id": "ind167",
                          "name": "Ind. Havoc",
                          "type": "individual",
                          "position": {
                            "lat": 46.50491,
                            "lon": 8.086653,
                            "alt": 2495
                          },
                          "children": []
                        },
                        {
                          "id": "ind168",
                          "name": "Ind. Ironside",
                          "type": "individual",
                          "position": {
                            "lat": 46.504792,
                            "lon": 8.086607,
                            "alt": 2532
                          },
                          "children": []
                        }
                      ],
                      "commander": {
                        "id": "cmd169",
                        "name": "Cmd. Jaguar"
                      }
                    },
                    {
                      "id": "sq184",
                      "name": "12 Sqd",
                      "type": "squad",
                      "position": {
                        "lat": 46.504074,
                        "lon": 8.086233,
                        "alt": 2454
                      },
                      "children": [
                        {
                          "id": "ind171",
                          "name": "Ind. Katana",
                          "type": "individual",
                          "position": {
                            "lat": 46.505077,
                            "lon": 8.086261,
                            "alt": 2443
                          },
                          "children": []
                        },
                        {
                          "id": "ind172",
                          "name": "Ind. Loki",
                          "type": "individual",
                          "position": {
                            "lat": 46.504827,
                            "lon": 8.0863,
                            "alt": 2519
                          },
                          "children": []
                        },
                        {
                          "id": "ind173",
                          "name": "Ind. Magnum",
                          "type": "individual",
                          "position": {
                            "lat": 46.505077,
                            "lon": 8.086007,
                            "alt": 2519
                          },
                          "children": []
                        },
                        {
                          "id": "ind174",
                          "name": "Ind. Northstar",
                          "type": "individual",
                          "position": {
                            "lat": 46.504526,
                            "lon": 8.086248,
                            "alt": 2534
                          },
                          "children": []
                        },
                        {
                          "id": "ind175",
                          "name": "Ind. Paladin",
                          "type": "individual",
                          "position": {
                            "lat": 46.504581,
                            "lon": 8.086084,
                            "alt": 2483
                          },
                          "children": []
                        },
                        {
                          "id": "ind176",
                          "name": "Ind. Rapier",
                          "type": "individual",
                          "position": {
                            "lat": 46.504237,
                            "lon": 8.086187,
                            "alt": 2454
                          },
                          "children": []
                        },
                        {
                          "id": "ind177",
                          "name": "Ind. Sable",
                          "type": "individual",
                          "position": {
                            "lat": 46.50416,
                            "lon": 8.086112,
                            "alt": 2515
                          },
                          "children": []
                        },
                        {
                          "id": "ind178",
                          "name": "Ind. Templar",
                          "type": "individual",
                          "position": {
                            "lat": 46.504476,
                            "lon": 8.085775,
                            "alt": 2538
                          },
                          "children": []
                        },
                        {
                          "id": "ind179",
                          "name": "Ind. Uppercut",
                          "type": "individual",
                          "position": {
                            "lat": 46.504168,
                            "lon": 8.085854,
                            "alt": 2456
                          },
                          "children": []
                        },
                        {
                          "id": "ind180",
                          "name": "Ind. Vigil",
                          "type": "individual",
                          "position": {
                            "lat": 46.50477,
                            "lon": 8.085326,
                            "alt": 2515
                          },
                          "children": []
                        },
                        {
                          "id": "ind181",
                          "name": "Ind. Warpath",
                          "type": "individual",
                          "position": {
                            "lat": 46.504628,
                            "lon": 8.085294,
                            "alt": 2464
                          },
                          "children": []
                        },
                        {
                          "id": "ind182",
                          "name": "Ind. Yellowjacket",
                          "type": "individual",
                          "position": {
                            "lat": 46.504792,
                            "lon": 8.085058,
                            "alt": 2451
                          },
                          "children": []
                        }
                      ],
                      "commander": {
                        "id": "cmd183",
                        "name": "Cmd. Zero"
                      }
                    }
                  ],
                  "commander": {
                    "id": "cmd185",
                    "name": "Cmd. Anvil"
                  },
                  "staff": [
                    {
                      "id": "staff187",
                      "name": "Stf. Barrage",
                      "position": {
                        "lat": 46.503168,
                        "lon": 8.088273,
                        "alt": 2507
                      }
                    },
                    {
                      "id": "staff188",
                      "name": "Stf. Claymore",
                      "position": {
                        "lat": 46.50334,
                        "lon": 8.088249,
                        "alt": 2507
                      }
                    }
                  ]
                },
                {
                  "id": "pl232",
                  "name": "12 Plt",
                  "type": "platoon",
                  "position": {
                    "lat": 46.502478,
                    "lon": 8.084117,
                    "alt": 2465
                  },
                  "children": [
                    {
                      "id": "sq202",
                      "name": "13 Sqd",
                      "type": "squad",
                      "position": {
                        "lat": 46.503562,
                        "lon": 8.084992,
                        "alt": 2526
                      },
                      "children": [
                        {
                          "id": "ind189",
                          "name": "Ind. Dire",
                          "type": "individual",
                          "position": {
                            "lat": 46.504063,
                            "lon": 8.085363,
                            "alt": 2465
                          },
                          "children": []
                        },
                        {
                          "id": "ind190",
                          "name": "Ind. Epoch",
                          "type": "individual",
                          "position": {
                            "lat": 46.504123,
                            "lon": 8.0852,
                            "alt": 2493
                          },
                          "children": []
                        },
                        {
                          "id": "ind191",
                          "name": "Ind. Frostbite",
                          "type": "individual",
                          "position": {
                            "lat": 46.503914,
                            "lon": 8.085207,
                            "alt": 2532
                          },
                          "children": []
                        },
                        {
                          "id": "ind192",
                          "name": "Ind. Galahad",
                          "type": "individual",
                          "position": {
                            "lat": 46.504101,
                            "lon": 8.084962,
                            "alt": 2535
                          },
                          "children": []
                        },
                        {
                          "id": "ind193",
                          "name": "Ind. Hellfire",
                          "type": "individual",
                          "position": {
                            "lat": 46.503915,
                            "lon": 8.084955,
                            "alt": 2516
                          },
                          "children": []
                        },
                        {
                          "id": "ind194",
                          "name": "Ind. Ibex",
                          "type": "individual",
                          "position": {
                            "lat": 46.504228,
                            "lon": 8.08463,
                            "alt": 2466
                          },
                          "children": []
                        },
                        {
                          "id": "ind195",
                          "name": "Ind. Joker",
                          "type": "individual",
                          "position": {
                            "lat": 46.504228,
                            "lon": 8.084504,
                            "alt": 2533
                          },
                          "children": []
                        },
                        {
                          "id": "ind196",
                          "name": "Ind. Krieg",
                          "type": "individual",
                          "position": {
                            "lat": 46.503913,
                            "lon": 8.084579,
                            "alt": 2454
                          },
                          "children": []
                        },
                        {
                          "id": "ind197",
                          "name": "Ind. Locust",
                          "type": "individual",
                          "position": {
                            "lat": 46.504423,
                            "lon": 8.084128,
                            "alt": 2536
                          },
                          "children": []
                        },
                        {
                          "id": "ind198",
                          "name": "Ind. Mace",
                          "type": "individual",
                          "position": {
                            "lat": 46.503841,
                            "lon": 8.084374,
                            "alt": 2540
                          },
                          "children": []
                        },
                        {
                          "id": "ind199",
                          "name": "Ind. Nightfall",
                          "type": "individual",
                          "position": {
                            "lat": 46.503769,
                            "lon": 8.084294,
                            "alt": 2469
                          },
                          "children": []
                        },
                        {
                          "id": "ind200",
                          "name": "Ind. Ogre",
                          "type": "individual",
                          "position": {
                            "lat": 46.503993,
                            "lon": 8.084026,
                            "alt": 2533
                          },
                          "children": []
                        }
                      ],
                      "commander": {
                        "id": "cmd201",
                        "name": "Cmd. Pyre"
                      }
                    },
                    {
                      "id": "sq216",
                      "name": "14 Sqd",
                      "type": "squad",
                      "position": {
                        "lat": 46.503433,
                        "lon": 8.083548,
                        "alt": 2462
                      },
                      "children": [
                        {
                          "id": "ind203",
                          "name": "Ind. Quake",
                          "type": "individual",
                          "position": {
                            "lat": 46.503943,
                            "lon": 8.083923,
                            "alt": 2462
                          },
                          "children": []
                        },
                        {
                          "id": "ind204",
                          "name": "Ind. Reckoner",
                          "type": "individual",
                          "position": {
                            "lat": 46.503944,
                            "lon": 8.083797,
                            "alt": 2495
                          },
                          "children": []
                        },
                        {
                          "id": "ind205",
                          "name": "Ind. Scythe",
                          "type": "individual",
                          "position": {
                            "lat": 46.504203,
                            "lon": 8.083513,
                            "alt": 2455
                          },
                          "children": []
                        },
                        {
                          "id": "ind206",
                          "name": "Ind. Typhon",
                          "type": "individual",
                          "position": {
                            "lat": 46.503776,
                            "lon": 8.08365,
                            "alt": 2474
                          },
                          "children": []
                        },
                        {
                          "id": "ind207",
                          "name": "Ind. Undertow",
                          "type": "individual",
                          "position": {
                            "lat": 46.503952,
                            "lon": 8.083418,
                            "alt": 2477
                          },
                          "children": []
                        },
                        {
                          "id": "ind208",
                          "name": "Ind. Vortex",
                          "type": "individual",
                          "position": {
                            "lat": 46.503972,
                            "lon": 8.083281,
                            "alt": 2502
                          },
                          "children": []
                        },
                        {
                          "id": "ind209",
                          "name": "Ind. Wyvern",
                          "type": "individual",
                          "position": {
                            "lat": 46.504156,
                            "lon": 8.083043,
                            "alt": 2491
                          },
                          "children": []
                        },
                        {
                          "id": "ind210",
                          "name": "Ind. Crossbow",
                          "type": "individual",
                          "position": {
                            "lat": 46.503807,
                            "lon": 8.083132,
                            "alt": 2493
                          },
                          "children": []
                        },
                        {
                          "id": "ind211",
                          "name": "Ind. Bastion",
                          "type": "individual",
                          "position": {
                            "lat": 46.503644,
                            "lon": 8.083107,
                            "alt": 2516
                          },
                          "children": []
                        },
                        {
                          "id": "ind212",
                          "name": "Ind. Caliber",
                          "type": "individual",
                          "position": {
                            "lat": 46.503885,
                            "lon": 8.082834,
                            "alt": 2497
                          },
                          "children": []
                        },
                        {
                          "id": "ind213",
                          "name": "Ind. Detonate",
                          "type": "individual",
                          "position": {
                            "lat": 46.503602,
                            "lon": 8.082883,
                            "alt": 2481
                          },
                          "children": []
                        },
                        {
                          "id": "ind214",
                          "name": "Ind. Exarch",
                          "type": "individual",
                          "position": {
                            "lat": 46.503532,
                            "lon": 8.082801,
                            "alt": 2481
                          },
                          "children": []
                        }
                      ],
                      "commander": {
                        "id": "cmd215",
                        "name": "Cmd. Flare"
                      }
                    },
                    {
                      "id": "sq230",
                      "name": "15 Sqd",
                      "type": "squad",
                      "position": {
                        "lat": 46.502707,
                        "lon": 8.082424,
                        "alt": 2511
                      },
                      "children": [
                        {
                          "id": "ind217",
                          "name": "Ind. Gale",
                          "type": "individual",
                          "position": {
                            "lat": 46.503914,
                            "lon": 8.082401,
                            "alt": 2513
                          },
                          "children": []
                        },
                        {
                          "id": "ind218",
                          "name": "Ind. Hoplite",
                          "type": "individual",
                          "position": {
                            "lat": 46.503189,
                            "lon": 8.0827,
                            "alt": 2521
                          },
                          "children": []
                        },
                        {
                          "id": "ind219",
                          "name": "Ind. Invictus",
                          "type": "individual",
                          "position": {
                            "lat": 46.50327,
                            "lon": 8.082529,
                            "alt": 2516
                          },
                          "children": []
                        },
                        {
                          "id": "ind220",
                          "name": "Ind. Jolt",
                          "type": "individual",
                          "position": {
                            "lat": 46.503481,
                            "lon": 8.082282,
                            "alt": 2473
                          },
                          "children": []
                        },
                        {
                          "id": "ind221",
                          "name": "Ind. Viper",
                          "type": "individual",
                          "position": {
                            "lat": 46.503778,
                            "lon": 8.081984,
                            "alt": 2442
                          },
                          "children": []
                        },
                        {
                          "id": "ind222",
                          "name": "Ind. Falcon",
                          "type": "individual",
                          "position": {
                            "lat": 46.503265,
                            "lon": 8.08216,
                            "alt": 2535
                          },
                          "children": []
                        },
                        {
                          "id": "ind223",
                          "name": "Ind. Raptor",
                          "type": "individual",
                          "position": {
                            "lat": 46.503292,
                            "lon": 8.08202,
                            "alt": 2496
                          },
                          "children": []
                        },
                        {
                          "id": "ind224",
                          "name": "Ind. Ghost",
                          "type": "individual",
                          "position": {
                            "lat": 46.503002,
                            "lon": 8.082066,
                            "alt": 2461
                          },
                          "children": []
                        },
                        {
                          "id": "ind225",
                          "name": "Ind. Shadow",
                          "type": "individual",
                          "position": {
                            "lat": 46.503171,
                            "lon": 8.081843,
                            "alt": 2512
                          },
                          "children": []
                        },
                        {
                          "id": "ind226",
                          "name": "Ind. Phoenix",
                          "type": "individual",
                          "position": {
                            "lat": 46.503712,
                            "lon": 8.081403,
                            "alt": 2470
                          },
                          "children": []
                        },
                        {
                          "id": "ind227",
                          "name": "Ind. Thunder",
                          "type": "individual",
                          "position": {
                            "lat": 46.503146,
                            "lon": 8.08161,
                            "alt": 2479
                          },
                          "children": []
                        },
                        {
                          "id": "ind228",
                          "name": "Ind. Eagle",
                          "type": "individual",
                          "position": {
                            "lat": 46.503108,
                            "lon": 8.081508,
                            "alt": 2515
                          },
                          "children": []
                        }
                      ],
                      "commander": {
                        "id": "cmd229",
                        "name": "Cmd. Wolf"
                      }
                    }
                  ],
                  "commander": {
                    "id": "cmd231",
                    "name": "Cmd. Cobra"
                  },
                  "staff": [
                    {
                      "id": "staff233",
                      "name": "Stf. Frost",
                      "position": {
                        "lat": 46.502597,
                        "lon": 8.083951,
                        "alt": 2465
                      }
                    },
                    {
                      "id": "staff234",
                      "name": "Stf. Delta",
                      "position": {
                        "lat": 46.502582,
                        "lon": 8.084263,
                        "alt": 2465
                      }
                    }
                  ]
                },
                {
                  "id": "pl278",
                  "name": "13 Plt",
                  "type": "platoon",
                  "position": {
                    "lat": 46.501312,
                    "lon": 8.08014,
                    "alt": 2545
                  },
                  "children": [
                    {
                      "id": "sq248",
                      "name": "16 Sqd",
                      "type": "squad",
                      "position": {
                        "lat": 46.502618,
                        "lon": 8.080961,
                        "alt": 2446
                      },
                      "children": [
                        {
                          "id": "ind235",
                          "name": "Ind. Romeo",
                          "type": "individual",
                          "position": {
                            "lat": 46.503308,
                            "lon": 8.081255,
                            "alt": 2537
                          },
                          "children": []
                        },
                        {
                          "id": "ind236",
                          "name": "Ind. Ember",
                          "type": "individual",
                          "position": {
                            "lat": 46.50285,
                            "lon": 8.081386,
                            "alt": 2488
                          },
                          "children": []
                        },
                        {
                          "id": "ind237",
                          "name": "Ind. Marshal",
                          "type": "individual",
                          "position": {
                            "lat": 46.502922,
                            "lon": 8.081223,
                            "alt": 2521
                          },
                          "children": []
                        },
                        {
                          "id": "ind238",
                          "name": "Ind. Nitro",
                          "type": "individual",
                          "position": {
                            "lat": 46.503101,
                            "lon": 8.081,
                            "alt": 2540
                          },
                          "children": []
                        },
                        {
                          "id": "ind239",
                          "name": "Ind. Onyx",
                          "type": "individual",
                          "position": {
                            "lat": 46.503414,
                            "lon": 8.080703,
                            "alt": 2500
                          },
                          "children": []
                        },
                        {
                          "id": "ind240",
                          "name": "Ind. Panther",
                          "type": "individual",
                          "position": {
                            "lat": 46.503453,
                            "lon": 8.080558,
                            "alt": 2463
                          },
                          "children": []
                        },
                        {
                          "id": "ind241",
                          "name": "Ind. Bolt",
                          "type": "individual",
                          "position": {
                            "lat": 46.502713,
                            "lon": 8.080846,
                            "alt": 2529
                          },
                          "children": []
                        },
                        {
                          "id": "ind242",
                          "name": "Ind. Kraken",
                          "type": "individual",
                          "position": {
                            "lat": 46.50296,
                            "lon": 8.080586,
                            "alt": 2466
                          },
                          "children": []
                        },
                        {
                          "id": "ind243",
                          "name": "Ind. Trident",
                          "type": "individual",
                          "position": {
                            "lat": 46.503359,
                            "lon": 8.08024,
                            "alt": 2454
                          },
                          "children": []
                        },
                        {
                          "id": "ind244",
                          "name": "Ind. Forge",
                          "type": "individual",
                          "position": {
                            "lat": 46.502855,
                            "lon": 8.080398,
                            "alt": 2530
                          },
                          "children": []
                        },
                        {
                          "id": "ind245",
                          "name": "Ind. Interceptor",
                          "type": "individual",
                          "position": {
                            "lat": 46.502937,
                            "lon": 8.080229,
                            "alt": 2467
                          },
                          "children": []
                        },
                        {
                          "id": "ind246",
                          "name": "Ind. Jackal",
                          "type": "individual",
                          "position": {
                            "lat": 46.50276,
                            "lon": 8.080204,
                            "alt": 2475
                          },
                          "children": []
                        }
                      ],
                      "commander": {
                        "id": "cmd247",
                        "name": "Cmd. Longbow"
                      }
                    },