{
  "id": "bde3641",
  "name": "1 Bde",
  "type": "brigade",
  "children": [
    {
      "id": "rgt1211",
      "name": "1 Rgt",
      "type": "regiment",
      "children": [
        {
          "id": "bn401",
          "name": "1 Bn",
          "type": "battalion",
          "children": [
            {
              "id": "co131",
              "name": "A Co",
              "type": "company",
              "children": [
                {
                  "id": "pl41",
                  "name": "1 Plt",
                  "type": "platoon",
                  "children": [
                    {
                      "id": "sq13",
                      "name": "1 Sqd",
                      "type": "squad",
                      "children": [
                        {
                          "id": "ind1",
                          "name": "Viper",
                          "type": "individual",
                          "position": {
                            "lat": 46.508015,
                            "lon": 8.101997,
                            "alt": 3292
                          },
                          "children": []
                        },
                        {
                          "id": "ind2",
                          "name": "Falcon",
                          "type": "individual",
                          "position": {
                            "lat": 46.507905,
                            "lon": 8.102154,
                            "alt": 3287
                          },
                          "children": []
                        },
                        {
                          "id": "ind3",
                          "name": "Raptor",
                          "type": "individual",
                          "position": {
                            "lat": 46.507861,
                            "lon": 8.102046,
                            "alt": 3289
                          },
                          "children": []
                        },
                        {
                          "id": "ind4",
                          "name": "Ghost",
                          "type": "individual",
                          "position": {
                            "lat": 46.507764,
                            "lon": 8.102151,
                            "alt": 3285
                          },
                          "children": []
                        },
                        {
                          "id": "ind5",
                          "name": "Shadow",
                          "type": "individual",
                          "position": {
                            "lat": 46.507715,
                            "lon": 8.102059,
                            "alt": 3286
                          },
                          "children": []
                        },
                        {
                          "id": "ind6",
                          "name": "Phoenix",
                          "type": "individual",
                          "position": {
                            "lat": 46.507654,
                            "lon": 8.10202,
                            "alt": 3286
                          },
                          "children": []
                        },
                        {
                          "id": "ind7",
                          "name": "Thunder",
                          "type": "individual",
                          "position": {
                            "lat": 46.507634,
                            "lon": 8.10181,
                            "alt": 3291
                          },
                          "children": []
                        },
                        {
                          "id": "ind8",
                          "name": "Eagle",
                          "type": "individual",
                          "position": {
                            "lat": 46.507513,
                            "lon": 8.102013,
                            "alt": 3284
                          },
                          "children": []
                        },
                        {
                          "id": "ind9",
                          "name": "Wolf",
                          "type": "individual",
                          "position": {
                            "lat": 46.507424,
                            "lon": 8.102084,
                            "alt": 3281
                          },
                          "children": []
                        },
                        {
                          "id": "ind10",
                          "name": "Cobra",
                          "type": "individual",
                          "position": {
                            "lat": 46.507391,
                            "lon": 8.101931,
                            "alt": 3284
                          },
                          "children": []
                        },
                        {
                          "id": "ind11",
                          "name": "Frost",
                          "type": "individual",
                          "position": {
                            "lat": 46.507385,
                            "lon": 8.101668,
                            "alt": 3291
                          },
                          "children": []
                        }
                      ],
                      "commander": {
                        "id": "cmd12",
                        "name": "Cmd. Delta",
                        "position": {
                          "lat": 46.507086,
                          "lon": 8.100536,
                          "alt": 3313
                        }
                      }
                    },
                    {
                      "id": "sq26",
                      "name": "2 Sqd",
                      "type": "squad",
                      "children": [
                        {
                          "id": "ind14",
                          "name": "Romeo",
                          "type": "individual",
                          "position": {
                            "lat": 46.507013,
                            "lon": 8.1007,
                            "alt": 3308
                          },
                          "children": []
                        },
                        {
                          "id": "ind15",
                          "name": "Ember",
                          "type": "individual",
                          "position": {
                            "lat": 46.507033,
                            "lon": 8.100366,
                            "alt": 3316
                          },
                          "children": []
                        },
                        {
                          "id": "ind16",
                          "name": "Marshal",
                          "type": "individual",
                          "position": {
                            "lat": 46.506953,
                            "lon": 8.100445,
                            "alt": 3313
                          },
                          "children": []
                        },
                        {
                          "id": "ind17",
                          "name": "Nitro",
                          "type": "individual",
                          "position": {
                            "lat": 46.506923,
                            "lon": 8.100318,
                            "alt": 3315
                          },
                          "children": []
                        },
                        {
                          "id": "ind18",
                          "name": "Onyx",
                          "type": "individual",
                          "position": {
                            "lat": 46.506826,
                            "lon": 8.10046,
                            "alt": 3311
                          },
                          "children": []
                        },
                        {
                          "id": "ind19",
                          "name": "Panther",
                          "type": "individual",
                          "position": {
                            "lat": 46.506758,
                            "lon": 8.100489,
                            "alt": 3308
                          },
                          "children": []
                        },
                        {
                          "id": "ind20",
                          "name": "Bolt",
                          "type": "individual",
                          "position": {
                            "lat": 46.506706,
                            "lon": 8.100452,
                            "alt": 3308
                          },
                          "children": []
                        },
                        {
                          "id": "ind21",
                          "name": "Kraken",
                          "type": "individual",
                          "position": {
                            "lat": 46.506657,
                            "lon": 8.100401,
                            "alt": 3308
                          },
                          "children": []
                        },
                        {
                          "id": "ind22",
                          "name": "Trident",
                          "type": "individual",
                          "position": {
                            "lat": 46.506633,
                            "lon": 8.100248,
                            "alt": 3310
                          },
                          "children": []
                        },
                        {
                          "id": "ind23",
                          "name": "Forge",
                          "type": "individual",
                          "position": {
                            "lat": 46.50652,
                            "lon": 8.100458,
                            "alt": 3303
                          },
                          "children": []
                        },
                        {
                          "id": "ind24",
                          "name": "Interceptor",
                          "type": "individual",
                          "position": {
                            "lat": 46.506479,
                            "lon": 8.100378,
                            "alt": 3304
                          },
                          "children": []
                        }
                      ],
                      "commander": {
                        "id": "cmd25",
                        "name": "Cmd. Jackal",
                        "position": {
                          "lat": 46.506493,
                          "lon": 8.099683,
                          "alt": 3317
                        }
                      }
                    },
                    {
                      "id": "sq39",
                      "name": "3 Sqd",
                      "type": "squad",
                      "children": [
                        {
                          "id": "ind27",
                          "name": "Longbow",
                          "type": "individual",
                          "position": {
                            "lat": 46.50578,
                            "lon": 8.10081,
                            "alt": 3270
                          },
                          "children": []
                        },
                        {
                          "id": "ind28",
                          "name": "Mongoose",
                          "type": "individual",
                          "position": {
                            "lat": 46.505637,
                            "lon": 8.100974,
                            "alt": 3263
                          },
                          "children": []
                        },
                        {
                          "id": "ind29",
                          "name": "Nighthawk",
                          "type": "individual",
                          "position": {
                            "lat": 46.505574,
                            "lon": 8.100899,
                            "alt": 3263
                          },
                          "children": []
                        },
                        {
                          "id": "ind30",
                          "name": "Papa",
                          "type": "individual",
                          "position": {
                            "lat": 46.505472,
                            "lon": 8.100939,
                            "alt": 3261
                          },
                          "children": []
                        },
                        {
                          "id": "ind31",
                          "name": "Quebec",
                          "type": "individual",
                          "position": {
                            "lat": 46.505446,
                            "lon": 8.100751,
                            "alt": 3264
                          },
                          "children": []
                        },
                        {
                          "id": "ind32",
                          "name": "Sierra",
                          "type": "individual",
                          "position": {
                            "lat": 46.505375,
                            "lon": 8.1007,
                            "alt": 3264
                          },
                          "children": []
                        },
                        {
                          "id": "ind33",
                          "name": "Whiskey",
                          "type": "individual",
                          "position": {
                            "lat": 46.505331,
                            "lon": 8.100568,
                            "alt": 3267
                          },
                          "children": []
                        },
                        {
                          "id": "ind34",
                          "name": "Flint",
                          "type": "individual",
                          "position": {
                            "lat": 46.505199,
                            "lon": 8.1007,
                            "alt": 3264
                          },
                          "children": []
                        },
                        {
                          "id": "ind35",
                          "name": "Warden",
                          "type": "individual",
                          "position": {
                            "lat": 46.505126,
                            "lon": 8.100652,
                            "alt": 3265
                          },
                          "children": []
                        },
                        {
                          "id": "ind36",
                          "name": "Inferno",
                          "type": "individual",
                          "position": {
                            "lat": 46.505123,
                            "lon": 8.100397,
                            "alt": 3270
                          },
                          "children": []
                        },
                        {
                          "id": "ind37",
                          "name": "Razor",
                          "type": "individual",
                          "position": {
                            "lat": 46.504974,
                            "lon": 8.100579,
                            "alt": 3266
                          },
                          "children": []
                        }
                      ],
                      "commander": {
                        "id": "cmd38",
                        "name": "Cmd. Sentinel",
                        "position": {
                          "lat": 46.505346,
                          "lon": 8.099196,
                          "alt": 3308
                        }
                      }
                    }
                  ],
                  "commander": {
                    "id": "cmd40",
                    "name": "Cmd. Vanguard",
                    "position": {
                      "lat": 46.504398,
                      "lon": 8.098409,
                      "alt": 3333
                    }
                  },
                  "staff": [
                    {
                      "id": "staff42",
                      "name": "Stf. Gladius",
                      "position": {
                        "lat": 46.504558,
                        "lon": 8.09831,
                        "alt": 3336
                      }
                    },
                    {
                      "id": "staff43",
                      "name": "Stf. Outlaw",
                      "position": {
                        "lat": 46.504323,
                        "lon": 8.098245,
                        "alt": 3336
                      }
                    }
                  ]
                },
                {
                  "id": "pl84",
                  "name": "2 Plt",
                  "type": "platoon",
                  "children": [
                    {
                      "id": "sq56",
                      "name": "4 Sqd",
                      "type": "squad",
                      "children": [
                        {
                          "id": "ind44",
                          "name": "Arsenal",
                          "type": "individual",
                          "position": {
                            "lat": 46.504875,
                            "lon": 8.099377,
                            "alt": 3300
                          },
                          "children": []
                        },
                        {
                          "id": "ind45",
                          "name": "Icarus",
                          "type": "individual",
                          "position": {
                            "lat": 46.504766,
                            "lon": 8.099389,
                            "alt": 3299
                          },
                          "children": []
                        },
                        {
                          "id": "ind46",
                          "name": "Nemesis",
                          "type": "individual",
                          "position": {
                            "lat": 46.50472,
                            "lon": 8.099315,
                            "alt": 3301
                          },
                          "children": []
                        },
                        {
                          "id": "ind47",
                          "name": "Corsair",
                          "type": "individual",
                          "position": {
                            "lat": 46.504667,
                            "lon": 8.099251,
                            "alt": 3303
                          },
                          "children": []
                        },
                        {
                          "id": "ind48",
                          "name": "Kestrel",
                          "type": "individual",
                          "position": {
                            "lat": 46.50467,
                            "lon": 8.099109,
                            "alt": 3308
                          },
                          "children": []
                        },
                        {
                          "id": "ind49",
                          "name": "Scorpion",
                          "type": "individual",
                          "position": {
                            "lat": 46.504592,
                            "lon": 8.099079,
                            "alt": 3309
                          },
                          "children": []
                        },
                        {
                          "id": "ind50",
                          "name": "Ace",
                          "type": "individual",
                          "position": {
                            "lat": 46.504542,
                            "lon": 8.099011,
                            "alt": 3312
                          },
                          "children": []
                        },
                        {
                          "id": "ind51",
                          "name": "Revenant",
                          "type": "individual",
                          "position": {
                            "lat": 46.504464,
                            "lon": 8.09898,
                            "alt": 3313
                          },
                          "children": []
                        },
                        {
                          "id": "ind52",
                          "name": "Praetor",
                          "type": "individual",
                          "position": {
                            "lat": 46.504559,
                            "lon": 8.098711,
                            "alt": 3324
                          },
                          "children": []
                        },
                        {
                          "id": "ind53",
                          "name": "Centurion",
                          "type": "individual",
                          "position": {
                            "lat": 46.504425,
                            "lon": 8.09876,
                            "alt": 3322
                          },
                          "children": []
                        },
                        {
                          "id": "ind54",
                          "name": "Condor",
                          "type": "individual",
                          "position": {
                            "lat": 46.504387,
                            "lon": 8.098674,
                            "alt": 3325
                          },
                          "children": []
                        }
                      ],
                      "commander": {
                        "id": "cmd55",
                        "name": "Cmd. Harrier",
                        "position": {
                          "lat": 46.503895,
                          "lon": 8.098433,
                          "alt": 3329
                        }
                      }
                    },
                    {
                      "id": "sq69",
                      "name": "5 Sqd",
                      "type": "squad",
                      "children": [
                        {
                          "id": "ind57",
                          "name": "Monarch",
                          "type": "individual",
                          "position": {
                            "lat": 46.503877,
                            "lon": 8.09802,
                            "alt": 3339
                          },
                          "children": []
                        },
                        {
                          "id": "ind58",
                          "name": "Sovereign",
                          "type": "individual",
                          "position": {
                            "lat": 46.503752,
                            "lon": 8.097991,
                            "alt": 3340
                          },
                          "children": []
                        },
                        {
                          "id": "ind59",
                          "name": "Sledgehammer",
                          "type": "individual",
                          "position": {
                            "lat": 46.503703,
                            "lon": 8.09793,
                            "alt": 3341
                          },
                          "children": []
                        },
                        {
                          "id": "ind60",
                          "name": "Tomahawk",
                          "type": "individual",
                          "position": {
                            "lat": 46.503685,
                            "lon": 8.097855,
                            "alt": 3343
                          },
                          "children": []
                        },
                        {
                          "id": "ind61",
                          "name": "Warlock",
                          "type": "individual",
                          "position": {
                            "lat": 46.503819,
                            "lon": 8.097717,
                            "alt": 3347
                          },
                          "children": []
                        },
                        {
                          "id": "ind62",
                          "name": "Ares",
                          "type": "individual",
                          "position": {
                            "lat": 46.503582,
                            "lon": 8.097736,
                            "alt": 3347
                          },
                          "children": []
                        },
                        {
                          "id": "ind63",
                          "name": "Raptor",
                          "type": "individual",
                          "position": {
                            "lat": 46.50375,
                            "lon": 8.097583,
                            "alt": 3350
                          },
                          "children": []
                        },
                        {
                          "id": "ind64",
                          "name": "Bulldog",
                          "type": "individual",
                          "position": {
                            "lat": 46.503731,
                            "lon": 8.09751,
                            "alt": 3352
                          },
                          "children": []
                        },
                        {
                          "id": "ind65",
                          "name": "Striker",
                          "type": "individual",
                          "position": {
                            "lat": 46.503705,
                            "lon": 8.097439,
                            "alt": 3354
                          },
                          "children": []
                        },
                        {
                          "id": "ind66",
                          "name": "Overlord",
                          "type": "individual",
                          "position": {
                            "lat": 46.50356,
                            "lon": 8.097418,
                            "alt": 3355
                          },
                          "children": []
                        },
                        {
                          "id": "ind67",
                          "name": "Sabre",
                          "type": "individual",
                          "position": {
                            "lat": 46.503557,
                            "lon": 8.097338,
                            "alt": 3357
                          },
                          "children": []
                        }
                      ],
                      "commander": {
                        "id": "cmd68",
                        "name": "Cmd. Talon",
                        "position": {
                          "lat": 46.503271,
                          "lon": 8.097157,
                          "alt": 3360
                        }
                      }
                    },
                    {
                      "id": "sq82",
                      "name": "6 Sqd",
                      "type": "squad",
                      "children": [
                        {
                          "id": "ind70",
                          "name": "Bravo",
                          "type": "individual",
                          "position": {
                            "lat": 46.503831,
                            "lon": 8.096353,
                            "alt": 3383
                          },
                          "children": []
                        },
                        {
                          "id": "ind71",
                          "name": "Spartan",
                          "type": "individual",
                          "position": {
                            "lat": 46.503752,
                            "lon": 8.096274,
                            "alt": 3383
                          },
                          "children": []
                        },
                        {
                          "id": "ind72",
                          "name": "Titan",
                          "type": "individual",
                          "position": {
                            "lat": 46.503715,
                            "lon": 8.096181,
                            "alt": 3384
                          },
                          "children": []
                        },
                        {
                          "id": "ind73",
                          "name": "Nomad",
                          "type": "individual",
                          "position": {
                            "lat": 46.503595,
                            "lon": 8.096117,
                            "alt": 3383
                          },
                          "children": []
                        },
                        {
                          "id": "ind74",
                          "name": "Blaze",
                          "type": "individual",
                          "position": {
                            "lat": 46.503619,
                            "lon": 8.096003,
                            "alt": 3385
                          },
                          "children": []
                        },
                        {
                          "id": "ind75",
                          "name": "Hammer",
                          "type": "individual",
                          "position": {
                            "lat": 46.503573,
                            "lon": 8.095913,
                            "alt": 3386
                          },
                          "children": []
                        },
                        {
                          "id": "ind76",
                          "name": "Iron",
                          "type": "individual",
                          "position": {
                            "lat": 46.503634,
                            "lon": 8.095787,
                            "alt": 3389
                          },
                          "children": []
                        },
                        {
                          "id": "ind77",
                          "name": "Javelin",
                          "type": "individual",
                          "position": {
                            "lat": 46.503627,
                            "lon": 8.095684,
                            "alt": 3390
                          },
                          "children": []
                        },
                        {
                          "id": "ind78",
                          "name": "Knight",
                          "type": "individual",
                          "position": {
                            "lat": 46.503584,
                            "lon": 8.095593,
                            "alt": 3391
                          },
                          "children": []
                        },
                        {
                          "id": "ind79",
                          "name": "Lancer",
                          "type": "individual",
                          "position": {
                            "lat": 46.503731,
                            "lon": 8.095438,
                            "alt": 3397
                          },
                          "children": []
                        },
                        {
                          "id": "ind80",
                          "name": "Storm",
                          "type": "individual",
                          "position": {
                            "lat": 46.503672,
                            "lon": 8.095352,
                            "alt": 3397
                          },
                          "children": []
                        }
                      ],
                      "commander": {
                        "id": "cmd81",
                        "name": "Cmd. Tempest",
                        "position": {
                          "lat": 46.5033,
                          "lon": 8.095342,
                          "alt": 3390
                        }
                      }
                    }
                  ],
                  "commander": {
                    "id": "cmd83",
                    "name": "Cmd. Valkyrie",
                    "position": {
                      "lat": 46.502474,
                      "lon": 8.093668,
                      "alt": 3450
                    }
                  },
                  "staff": [
                    {
                      "id": "staff85",
                      "name": "Stf. Apex",
                      "position": {
                        "lat": 46.502587,
                        "lon": 8.093726,
                        "alt": 3446
                      }
                    },
                    {
                      "id": "staff86",
                      "name": "Stf. Fury",
                      "position": {
                        "lat": 46.502452,
                        "lon": 8.093488,
                        "alt": 3458
                      }
                    }
                  ]
                },
                {
                  "id": "pl127",
                  "name": "3 Plt",
                  "type": "platoon",
                  "children": [
                    {
                      "id": "sq99",
                      "name": "7 Sqd",
                      "type": "squad",
                      "children": [
                        {
                          "id": "ind87",
                          "name": "Grizzly",
                          "type": "individual",
                          "position": {
                            "lat": 46.503566,
                            "lon": 8.094395,
                            "alt": 3420
                          },
                          "children": []
                        },
                        {
                          "id": "ind88",
                          "name": "Hornet",
                          "type": "individual",
                          "position": {
                            "lat": 46.503675,
                            "lon": 8.094138,
                            "alt": 3431
                          },
                          "children": []
                        },
                        {
                          "id": "ind89",
                          "name": "Inferno",
                          "type": "individual",
                          "position": {
                            "lat": 46.503648,
                            "lon": 8.094078,
                            "alt": 3432
                          },
                          "children": []
                        },
                        {
                          "id": "ind90",
                          "name": "Neptune",
                          "type": "individual",
                          "position": {
                            "lat": 46.503548,
                            "lon": 8.094122,
                            "alt": 3428
                          },
                          "children": []
                        },
                        {
                          "id": "ind91",
                          "name": "Odin",
                          "type": "individual",
                          "position": {
                            "lat": 46.503547,
                            "lon": 8.094024,
                            "alt": 3431
                          },
                          "children": []
                        },
                        {
                          "id": "ind92",
                          "name": "Patriot",
                          "type": "individual",
                          "position": {
                            "lat": 46.503393,
                            "lon": 8.094145,
                            "alt": 3425
                          },
                          "children": []
                        },
                        {
                          "id": "ind93",
                          "name": "Cipher",
                          "type": "individual",
                          "position": {
                            "lat": 46.503507,
                            "lon": 8.093881,
                            "alt": 3436
                          },
                          "children": []
                        },
                        {
                          "id": "ind94",
                          "name": "Drake",
                          "type": "individual",
                          "position": {
                            "lat": 46.503443,
                            "lon": 8.093874,
                            "alt": 3435
                          },
                          "children": []
                        },
                        {
                          "id": "ind95",
                          "name": "Legion",
                          "type": "individual",
                          "position": {
                            "lat": 46.503263,
                            "lon": 8.094032,
                            "alt": 3428
                          },
                          "children": []
                        },
                        {
                          "id": "ind96",
                          "name": "Mirage",
                          "type": "individual",
                          "position": {
                            "lat": 46.503281,
                            "lon": 8.093908,
                            "alt": 3432
                          },
                          "children": []
                        },
                        {
                          "id": "ind97",
                          "name": "Spectre",
                          "type": "individual",
                          "position": {
                            "lat": 46.503309,
                            "lon": 8.093766,
                            "alt": 3438
                          },
                          "children": []
                        }
                      ],
                      "commander": {
                        "id": "cmd98",
                        "name": "Cmd. Torque",
                        "position": {
                          "lat": 46.50303,
                          "lon": 8.093281,
                          "alt": 3458
                        }
                      }
                    },
                    {
                      "id": "sq112",
                      "name": "8 Sqd",
                      "type": "squad",
                      "children": [
                        {
                          "id": "ind100",
                          "name": "Dynamo",
                          "type": "individual",
                          "position": {
                            "lat": 46.502042,
                            "lon": 8.095525,
                            "alt": 3395
                          },
                          "children": []
                        },
                        {
                          "id": "ind101",
                          "name": "Eclipse",
                          "type": "individual",
                          "position": {
                            "lat": 46.502069,
                            "lon": 8.095188,
                            "alt": 3404
                          },
                          "children": []
                        },
                        {
                          "id": "ind102",
                          "name": "Goliath",
                          "type": "individual",
                          "position": {
                            "lat": 46.501991,
                            "lon": 8.095298,
                            "alt": 3402
                          },
                          "children": []
                        },
                        {
                          "id": "ind103",
                          "name": "Hydra",
                          "type": "individual",
                          "position": {
                            "lat": 46.50191,
                            "lon": 8.095419,
                            "alt": 3401
                          },
                          "children": []
                        },
                        {
                          "id": "ind104",
                          "name": "Leopard",
                          "type": "individual",
                          "position": {
                            "lat": 46.501895,
                            "lon": 8.095258,
                            "alt": 3407
                          },
                          "children": []
                        },
                        {
                          "id": "ind105",
                          "name": "Mustang",
                          "type": "individual",
                          "position": {
                            "lat": 46.501796,
                            "lon": 8.095457,
                            "alt": 3404
                          },
                          "children": []
                        },
                        {
                          "id": "ind106",
                          "name": "Nova",
                          "type": "individual",
                          "position": {
                            "lat": 46.501834,
                            "lon": 8.095074,
                            "alt": 3414
                          },
                          "children": []
                        },
                        {
                          "id": "ind107",
                          "name": "Orion",
                          "type": "individual",
                          "position": {
                            "lat": 46.501708,
                            "lon": 8.095386,
                            "alt": 3410
                          },
                          "children": []
                        },
                        {
                          "id": "ind108",
                          "name": "Phantom",
                          "type": "individual",
                          "position": {
                            "lat": 46.501692,
                            "lon": 8.09523,
                            "alt": 3414
                          },
                          "children": []
                        },
                        {
                          "id": "ind109",
                          "name": "Viking",
                          "type": "individual",
                          "position": {
                            "lat": 46.501691,
                            "lon": 8.095012,
                            "alt": 3421
                          },
                          "children": []
                        },
                        {
                          "id": "ind110",
                          "name": "Wolverine",
                          "type": "individual",
                          "position": {
                            "lat": 46.501566,
                            "lon": 8.095323,
                            "alt": 3417
                          },
                          "children": []
                        }
                      ],
                      "commander": {
                        "id": "cmd111",
                        "name": "Cmd. Zenith",
                        "position": {
                          "lat": 46.501744,
                          "lon": 8.092987,
                          "alt": 3491
                        }
                      }
                    },
                    {
                      "id": "sq125",
                      "name": "9 Sqd",
                      "type": "squad",
                      "children": [
                        {
                          "id": "ind113",
                          "name": "Atlas",
                          "type": "individual",
                          "position": {
                            "lat": 46.50108,
                            "lon": 8.094881,
                            "alt": 3448
                          },
                          "children": []
                        },
                        {
                          "id": "ind114",
                          "name": "Bandit",
                          "type": "individual",
                          "position": {
                            "lat": 46.501027,
                            "lon": 8.094903,
                            "alt": 3450
                          },
                          "children": []
                        },
                        {
                          "id": "ind115",
                          "name": "Dagger",
                          "type": "individual",
                          "position": {
                            "lat": 46.500995,
                            "lon": 8.09478,
                            "alt": 3455
                          },
                          "children": []
                        },
                        {
                          "id": "ind116",
                          "name": "Enforcer",
                          "type": "individual",
                          "position": {
                            "lat": 46.500933,
                            "lon": 8.094867,
                            "alt": 3455
                          },
                          "children": []
                        },
                        {
                          "id": "ind117",
                          "name": "Foxhound",
                          "type": "individual",
                          "position": {
                            "lat": 46.50089,
                            "lon": 8.094819,
                            "alt": 3459
                          },
                          "children": []
                        },
                        {
                          "id": "ind118",
                          "name": "Gunner",
                          "type": "individual",
                          "position": {
                            "lat": 46.50084,
                            "lon": 8.094825,
                            "alt": 3461
                          },
                          "children": []
                        },
                        {
                          "id": "ind119",
                          "name": "Hercules",
                          "type": "individual",
                          "position": {
                            "lat": 46.500835,
                            "lon": 8.094517,
                            "alt": 3472
                          },
                          "children": []
                        },
                        {
                          "id": "ind120",
                          "name": "Juggernaut",
                          "type": "individual",
                          "position": {
                            "lat": 46.500739,
                            "lon": 8.094837,
                            "alt": 3466
                          },
                          "children": []
                        },
                        {
                          "id": "ind121",
                          "name": "Kodiak",
                          "type": "individual",
                          "position": {
                            "lat": 46.500704,
                            "lon": 8.09473,
                            "alt": 3472
                          },
                          "children": []
                        },
                        {
                          "id": "ind122",
                          "name": "Lynx",
                          "type": "individual",
                          "position": {
                            "lat": 46.500662,
                            "lon": 8.094683,
                            "alt": 3476
                          },
                          "children": []
                        },
                        {
                          "id": "ind123",
                          "name": "Mantis",
                          "type": "individual",
                          "position": {
                            "lat": 46.500646,
                            "lon": 8.094449,
                            "alt": 3486
                          },
                          "children": []
                        }
                      ],
                      "commander": {
                        "id": "cmd124",
                        "name": "Cmd. Bishop",
                        "position": {
                          "lat": 46.500297,
                          "lon": 8.092511,
                          "alt": 3563
                        }
                      }
                    }
                  ],
                  "commander": {
                    "id": "cmd126",
                    "name": "Cmd. Castle",
                    "position": {
                      "lat": 46.500051,
                      "lon": 8.091225,
                      "alt": 3631
                    }
                  },
                  "staff": [
                    {
                      "id": "staff128",
                      "name": "Stf. Draco",
                      "position": {
                        "lat": 46.500161,
                        "lon": 8.091395,
                        "alt": 3614
                      }
                    },
                    {
                      "id": "staff129",
                      "name": "Stf. Enigma",
                      "position": {
                        "lat": 46.500036,
                        "lon": 8.09136,
                        "alt": 3626
                      }
                    }
                  ]
                }
              ],
              "commander": {
                "id": "cmd130",
                "name": "Cmd. Firestorm",
                "position": {
                  "lat": 46.501053,
                  "lon": 8.089995,
                  "alt": 3609
                }
              },
              "staff": [
                {
                  "id": "staff132",
                  "name": "Stf. Quicksilver",
                  "position": {
                    "lat": 46.501085,
                    "lon": 8.089753,
                    "alt": 3619
                  }
                },
                {
                  "id": "staff133",
                  "name": "Stf. Ronin",
                  "position": {
                    "lat": 46.501118,
                    "lon": 8.089832,
                    "alt": 3615
                  }
                }
              ]
            },
            {
              "id": "co264",
              "name": "B Co",
              "type": "company",
              "children": [
                {
                  "id": "pl174",
                  "name": "11 Plt",
                  "type": "platoon",
                  "children": [
                    {
                      "id": "sq146",
                      "name": "10 Sqd",
                      "type": "squad",
                      "children": [
                        {
                          "id": "ind134",
                          "name": "Umbra",
                          "type": "individual",
                          "position": {
                            "lat": 46.499937,
                            "lon": 8.094213,
                            "alt": 3528
                          },
                          "children": []
                        },
                        {
                          "id": "ind135",
                          "name": "Vertex",
                          "type": "individual",
                          "position": {
                            "lat": 46.499878,
                            "lon": 8.094267,
                            "alt": 3528
                          },
                          "children": []
                        },
                        {
                          "id": "ind136",
                          "name": "Wildfire",
                          "type": "individual",
                          "position": {
                            "lat": 46.49982,
                            "lon": 8.09432,
                            "alt": 3528
                          },
                          "children": []
                        },
                        {
                          "id": "ind137",
                          "name": "Xenon",
                          "type": "individual",
                          "position": {
                            "lat": 46.4998,
                            "lon": 8.094153,
                            "alt": 3535
                          },
                          "children": []
                        },
                        {
                          "id": "ind138",
                          "name": "Yeti",
                          "type": "individual",
                          "position": {
                            "lat": 46.499718,
                            "lon": 8.094336,
                            "alt": 3531
                          },
                          "children": []
                        },
                        {
                          "id": "ind139",
                          "name": "Breaker",
                          "type": "individual",
                          "position": {
                            "lat": 46.499725,
                            "lon": 8.094017,
                            "alt": 3542
                          },
                          "children": []
                        },
                        {
                          "id": "ind140",
                          "name": "Dominator",
                          "type": "individual",
                          "position": {
                            "lat": 46.499657,
                            "lon": 8.094123,
                            "alt": 3541
                          },
                          "children": []
                        },
                        {
                          "id": "ind141",
                          "name": "Impulse",
                          "type": "individual",
                          "position": {
                            "lat": 46.499579,
                            "lon": 8.094286,
                            "alt": 3538
                          },
                          "children": []
                        },
                        {
                          "id": "ind142",
                          "name": "Jester",
                          "type": "individual",
                          "position": {
                            "lat": 46.499578,
                            "lon": 8.094012,
                            "alt": 3548
                          },
                          "children": []
                        },
                        {
                          "id": "ind143",
                          "name": "Rogue",
                          "type": "individual",
                          "position": {
                            "lat": 46.499496,
                            "lon": 8.094197,
                            "alt": 3545
                          },
                          "children": []
                        },
                        {
                          "id": "ind144",
                          "name": "Maverick",
                          "type": "individual",
                          "position": {
                            "lat": 46.499454,
                            "lon": 8.094156,
                            "alt": 3548
                          },
                          "children": []
                        }
                      ],
                      "commander": {
                        "id": "cmd145",
                        "name": "Cmd. Echo",
                        "position": {
                          "lat": 46.499261,
                          "lon": 8.092235,
                          "alt": 3645
                        }
                      }
                    },
                    {
                      "id": "sq159",
                      "name": "11 Sqd",
                      "type": "squad",
                      "children": [
                        {
                          "id": "ind147",
                          "name": "Foxtrot",
                          "type": "individual",
                          "position": {
                            "lat": 46.498861,
                            "lon": 8.092971,
                            "alt": 3629
                          },
                          "children": []
                        },
                        {
                          "id": "ind148",
                          "name": "Kilo",
                          "type": "individual",
                          "position": {
                            "lat": 46.498807,
                            "lon": 8.092907,
                            "alt": 3638
                          },
                          "children": []
                        },
                        {
                          "id": "ind149",
                          "name": "Lima",
                          "type": "individual",
                          "position": {
                            "lat": 46.498754,
                            "lon": 8.092839,
                            "alt": 3647
                          },
                          "children": []
                        },
                        {
                          "id": "ind150",
                          "name": "Oscar",
                          "type": "individual",
                          "position": {
                            "lat": 46.498769,
                            "lon": 8.092609,
                            "alt": 3661
                          },
                          "children": []
                        },
                        {
                          "id": "ind151",
                          "name": "Tango",
                          "type": "individual",
                          "position": {
                            "lat": 46.498621,
                            "lon": 8.092769,
                            "alt": 3660
                          },
                          "children": []
                        },
                        {
                          "id": "ind152",
                          "name": "Zulu",
                          "type": "individual",
                          "position": {
                            "lat": 46.498651,
                            "lon": 8.092502,
                            "alt": 3672
                          },
                          "children": []
                        },
                        {
                          "id": "ind153",
                          "name": "Archer",
                          "type": "individual",
                          "position": {
                            "lat": 46.498491,
                            "lon": 8.092691,
                            "alt": 3671
                          },
                          "children": []
                        },
                        {
                          "id": "ind154",
                          "name": "Hawk",
                          "type": "individual",
                          "position": {
                            "lat": 46.49848,
                            "lon": 8.092523,
                            "alt": 3679
                          },
                          "children": []
                        },
                        {
                          "id": "ind155",
                          "name": "Reaper",
                          "type": "individual",
                          "position": {
                            "lat": 46.498472,
                            "lon": 8.092348,
                            "alt": 3689
                          },
                          "children": []
                        },
                        {
                          "id": "ind156",
                          "name": "Phalanx",
                          "type": "individual",
                          "position": {
                            "lat": 46.498439,
                            "lon": 8.092232,
                            "alt": 3696
                          },
                          "children": []
                        },
                        {
                          "id": "ind157",
                          "name": "Rampart",
                          "type": "individual",
                          "position": {
                            "lat": 46.498302,
                            "lon": 8.092366,
                            "alt": 3696
                          },
                          "children": []
                        }
                      ],
                      "commander": {
                        "id": "cmd158",
                        "name": "Cmd. Stalker",
                        "position": {
                          "lat": 46.49844,
                          "lon": 8.091139,
                          "alt": 3763
                        }
                      }
                    },
                    {
                      "id": "sq172",
                      "name": "12 Sqd",
                      "type": "squad",
                      "children": [
                        {
                          "id": "ind160",
                          "name": "Tigershark",
                          "type": "individual",
                          "position": {
                            "lat": 46.498315,
                            "lon": 8.09116,
                            "alt": 3764
                          },
                          "children": []
                        },
                        {
                          "id": "ind161",
                          "name": "Vandal",
                          "type": "individual",
                          "position": {
                            "lat": 46.498274,
                            "lon": 8.091057,
                            "alt": 3771
                          },
                          "children": []
                        },
                        {
                          "id": "ind162",
                          "name": "Wraith",
                          "type": "individual",
                          "position": {
                            "lat": 46.498098,
                            "lon": 8.090967,
                            "alt": 3778
                          },
                          "children": []
                        },
                        {
                          "id": "ind163",
                          "name": "Brimstone",
                          "type": "individual",
                          "position": {
                            "lat": 46.498142,
                            "lon": 8.090856,
                            "alt": 3785
                          },
                          "children": []
                        },
                        {
                          "id": "ind164",
                          "name": "Cutlass",
                          "type": "individual",
                          "position": {
                            "lat": 46.498066,
                            "lon": 8.090756,
                            "alt": 3790
                          },
                          "children": []
                        },
                        {
                          "id": "ind165",
                          "name": "Deacon",
                          "type": "individual",
                          "position": {
                            "lat": 46.498186,
                            "lon": 8.090638,
                            "alt": 3800
                          },
                          "children": []
                        },
                        {
                          "id": "ind166",
                          "name": "Falcon",
                          "type": "individual",
                          "position": {
                            "lat": 46.498135,
                            "lon": 8.090536,
                            "alt": 3806
                          },
                          "children": []
                        },
                        {
                          "id": "ind167",
                          "name": "Griffin",
                          "type": "individual",
                          "position": {
                            "lat": 46.498201,
                            "lon": 8.090424,
                            "alt": 3815
                          },
                          "children": []
                        },
                        {
                          "id": "ind168",
                          "name": "Havoc",
                          "type": "individual",
                          "position": {
                            "lat": 46.498044,
                            "lon": 8.090332,
                            "alt": 3810
                          },
                          "children": []
                        },
                        {
                          "id": "ind169",
                          "name": "Ironside",
                          "type": "individual",
                          "position": {
                            "lat": 46.498245,
                            "lon": 8.090206,
                            "alt": 3824
                          },
                          "children": []
                        },
                        {
                          "id": "ind170",
                          "name": "Jaguar",
                          "type": "individual",
                          "position": {
                            "lat": 46.498163,
                            "lon": 8.090107,
                            "alt": 3822
                          },
                          "children": []
                        }
                      ],
                      "commander": {
                        "id": "cmd171",
                        "name": "Cmd. Katana",
                        "position": {
                          "lat": 46.497899,
                          "lon": 8.089698,
                          "alt": 3776
                        }
                      }
                    }
                  ],
                  "commander": {
                    "id": "cmd173",
                    "name": "Cmd. Loki",
                    "position": {
                      "lat": 46.49642,
                      "lon": 8.088966,
                      "alt": 3621
                    }
                  },
                  "staff": [
                    {
                      "id": "staff175",
                      "name": "Stf. Magnum",
                      "position": {
                        "lat": 46.496254,
                        "lon": 8.089043,
                        "alt": 3607
                      }
                    },
                    {
                      "id": "staff176",
                      "name": "Stf. Northstar",
                      "position": {
                        "lat": 46.49645,
                        "lon": 8.088774,
                        "alt": 3624
                      }
                    }
                  ]
                },
                {
                  "id": "pl217",
                  "name": "12 Plt",
                  "type": "platoon",
                  "children": [
                    {
                      "id": "sq189",
                      "name": "13 Sqd",
                      "type": "squad",
                      "children": [
                        {
                          "id": "ind177",
                          "name": "Paladin",
                          "type": "individual",
                          "position": {
                            "lat": 46.497598,
                            "lon": 8.088793,
                            "alt": 3715
                          },
                          "children": []
                        },
                        {
                          "id": "ind178",
                          "name": "Rapier",
                          "type": "individual",
                          "position": {
                            "lat": 46.497584,
                            "lon": 8.088701,
                            "alt": 3713
                          },
                          "children": []
                        },
                        {
                          "id": "ind179",
                          "name": "Sable",
                          "type": "individual",
                          "position": {
                            "lat": 46.497586,
                            "lon": 8.08862,
                            "alt": 3713
                          },
                          "children": []
                        },
                        {
                          "id": "ind180",
                          "name": "Templar",
                          "type": "individual",
                          "position": {
                            "lat": 46.497687,
                            "lon": 8.088605,
                            "alt": 3719
                          },
                          "children": []
                        },
                        {
                          "id": "ind181",
                          "name": "Uppercut",
                          "type": "individual",
                          "position": {
                            "lat": 46.49756,
                            "lon": 8.088438,
                            "alt": 3710
                          },
                          "children": []
                        },
                        {
                          "id": "ind182",
                          "name": "Vigil",
                          "type": "individual",
                          "position": {
                            "lat": 46.497725,
                            "lon": 8.088466,
                            "alt": 3721
                          },
                          "children": []
                        },
                        {
                          "id": "ind183",
                          "name": "Warpath",
                          "type": "individual",
                          "position": {
                            "lat": 46.497754,
                            "lon": 8.088403,
                            "alt": 3724
                          },
                          "children": []
                        },
                        {
                          "id": "ind184",
                          "name": "Yellowjacket",
                          "type": "individual",
                          "position": {
                            "lat": 46.497818,
                            "lon": 8.088364,
                            "alt": 3729
                          },
                          "children": []
                        },
                        {
                          "id": "ind185",
                          "name": "Zero",
                          "type": "individual",
                          "position": {
                            "lat": 46.497704,
                            "lon": 8.088205,
                            "alt": 3721
                          },
                          "children": []
                        },
                        {
                          "id": "ind186",
                          "name": "Anvil",
                          "type": "individual",
                          "position": {
                            "lat": 46.497835,
                            "lon": 8.08821,
                            "alt": 3732
                          },
                          "children": []
                        },
                        {
                          "id": "ind187",
                          "name": "Barrage",
                          "type": "individual",
                          "position": {
                            "lat": 46.497738,
                            "lon": 8.088063,
                            "alt": 3723
                          },
                          "children": []
                        }
                      ],
                      "commander": {
                        "id": "cmd188",
                        "name": "Cmd. Claymore",
                        "position": {
                          "lat": 46.498059,
                          "lon": 8.088268,
                          "alt": 3744
                        }
                      }
                    },
                    {
                      "id": "sq202",
                      "name": "14 Sqd",
                      "type": "squad",
                      "children": [
                        {
                          "id": "ind190",
                          "name": "Dire",
                          "type": "individual",
                          "position": {
                            "lat": 46.498142,
                            "lon": 8.087211,
                            "alt": 3738
                          },
                          "children": []
                        },
                        {
                          "id": "ind191",
                          "name": "Epoch",
                          "type": "individual",
                          "position": {
                            "lat": 46.498166,
                            "lon": 8.08711,
                            "alt": 3736
                          },
                          "children": []
                        },
                        {
                          "id": "ind192",
                          "name": "Frostbite",
                          "type": "individual",
                          "position": {
                            "lat": 46.498132,
                            "lon": 8.086957,
                            "alt": 3726
                          },
                          "children": []
                        },
                        {
                          "id": "ind193",
                          "name": "Galahad",
                          "type": "individual",
                          "position": {
                            "lat": 46.498091,
                            "lon": 8.086798,
                            "alt": 3715
                          },
                          "children": []
                        },
                        {
                          "id": "ind194",
                          "name": "Hellfire",
                          "type": "individual",
                          "position": {
                            "lat": 46.498073,
                            "lon": 8.086659,
                            "alt": 3706
                          },
                          "children": []
                        },
                        {
                          "id": "ind195",
                          "name": "Ibex",
                          "type": "individual",
                          "position": {
                            "lat": 46.498161,
                            "lon": 8.086617,
                            "alt": 3707
                          },
                          "children": []
                        },
                        {
                          "id": "ind196",
                          "name": "Joker",
                          "type": "individual",
                          "position": {
                            "lat": 46.498191,
                            "lon": 8.086522,
                            "alt": 3703
                          },
                          "children": []
                        },
                        {
                          "id": "ind197",
                          "name": "Krieg",
                          "type": "individual",
                          "position": {
                            "lat": 46.498397,
                            "lon": 8.086587,
                            "alt": 3716
                          },
                          "children": []
                        },
                        {
                          "id": "ind198",
                          "name": "Locust",
                          "type": "individual",
                          "position": {
                            "lat": 46.498444,
                            "lon": 8.086508,
                            "alt": 3713
                          },
                          "children": []
                        },
                        {
                          "id": "ind199",
                          "name": "Mace",
                          "type": "individual",
                          "position": {
                            "lat": 46.498308,
                            "lon": 8.086262,
                            "alt": 3691
                          },
                          "children": []
                        },
                        {
                          "id": "ind200",
                          "name": "Nightfall",
                          "type": "individual",
                          "position": {
                            "lat": 46.498487,
                            "lon": 8.086303,
                            "alt": 3702
                          },
                          "children": []
                        }
                      ],
                      "commander": {
                        "id": "cmd201",
                        "name": "Cmd. Ogre",
                        "position": {
                          "lat": 46.498503,
                          "lon": 8.086686,
                          "alt": 3728
                        }
                      }
                    },
                    {
                      "id": "sq215",
                      "name": "15 Sqd",
                      "type": "squad",
                      "children": [
                        {
                          "id": "ind203",
                          "name": "Pyre",
                          "type": "individual",
                          "position": {
                            "lat": 46.498464,
                            "lon": 8.085357,
                            "alt": 3638
                          },
                          "children": []
                        },
                        {
                          "id": "ind204",
                          "name": "Quake",
                          "type": "individual",
                          "position": {
                            "lat": 46.498443,
                            "lon": 8.085225,
                            "alt": 3629
                          },
                          "children": []
                        },
                        {
                          "id": "ind205",
                          "name": "Reckoner",
                          "type": "individual",
                          "position": {
                            "lat": 46.498658,
                            "lon": 8.085314,
                            "alt": 3644
                          },
                          "children": []
                        },
                        {
                          "id": "ind206",
                          "name": "Scythe",
                          "type": "individual",
                          "position": {
                            "lat": 46.498637,
                            "lon": 8.085182,
                            "alt": 3635
                          },
                          "children": []
                        },
                        {
                          "id": "ind207",
                          "name": "Typhon",
                          "type": "individual",
                          "position": {
                            "lat": 46.498525,
                            "lon": 8.084965,
                            "alt": 3618
                          },
                          "children": []
                        },
                        {
                          "id": "ind208",
                          "name": "Undertow",
                          "type": "individual",
                          "position": {
                            "lat": 46.498629,
                            "lon": 8.08495,
                            "alt": 3622
                          },
                          "children": []
                        },
                        {
                          "id": "ind209",
                          "name": "Vortex",
                          "type": "individual",
                          "position": {
                            "lat": 46.498738,
                            "lon": 8.08494,
                            "alt": 3627
                          },
                          "children": []
                        },
                        {
                          "id": "ind210",
                          "name": "Wyvern",
                          "type": "individual",
                          "position": {
                            "lat": 46.498815,
                            "lon": 8.084899,
                            "alt": 3628
                          },
                          "children": []
                        },
                        {
                          "id": "ind211",
                          "name": "Crossbow",
                          "type": "individual",
                          "position": {
                            "lat": 46.498702,
                            "lon": 8.084681,
                            "alt": 3614
                          },
                          "children": []
                        },
                        {
                          "id": "ind212",
                          "name": "Bastion",
                          "type": "individual",
                          "position": {
                            "lat": 46.498719,
                            "lon": 8.084585,
                            "alt": 3611
                          },
                          "children": []
                        },
                        {
                          "id": "ind213",
                          "name": "Caliber",
                          "type": "individual",
                          "position": {
                            "lat": 46.498782,
                            "lon": 8.084531,
                            "alt": 3612
                          },
                          "children": []
                        }
                      ],
                      "commander": {
                        "id": "cmd214",
                        "name": "Cmd. Detonate",
                        "position": {
                          "lat": 46.499033,
                          "lon": 8.085696,
                          "alt": 3688
                        }
                      }
                    }
                  ],
                  "commander": {
                    "id": "cmd216",
                    "name": "Cmd. Exarch",
                    "position": {
                      "lat": 46.496665,
                      "lon": 8.084173,
                      "alt": 3497
                    }
                  },
                  "staff": [
                    {
                      "id": "staff218",
                      "name": "Stf. Flare",
                      "position": {
                        "lat": 46.496595,
                        "lon": 8.084063,
                        "alt": 3492
                      }
                    },
                    {
                      "id": "staff219",
                      "name": "Stf. Gale",
                      "position": {
                        "lat": 46.496617,
                        "lon": 8.084254,
                        "alt": 3496
                      }
                    }
                  ]
                },
                {
                  "id": "pl260",
                  "name": "13 Plt",
                  "type": "platoon",
                  "children": [
                    {
                      "id": "sq232",
                      "name": "16 Sqd",
                      "type": "squad",
                      "children": [
                        {
                          "id": "ind220",
                          "name": "Hoplite",
                          "type": "individual",
                          "position": {
                            "lat": 46.500133,
                            "lon": 8.084846,
                            "alt": 3723
                          },
                          "children": []
                        },
                        {
                          "id": "ind221",
                          "name": "Invictus",
                          "type": "individual",
                          "position": {
                            "lat": 46.500075,
                            "lon": 8.084706,
                            "alt": 3708
                          },
                          "children": []
                        },
                        {
                          "id": "ind222",
                          "name": "Jolt",
                          "type": "individual",
                          "position": {
                            "lat": 46.500025,
                            "lon": 8.084572,
                            "alt": 3694
                          },
                          "children": []
                        },
                        {
                          "id": "ind223",
                          "name": "Viper",
                          "type": "individual",
                          "position": {
                            "lat": 46.500225,
                            "lon": 8.084629,
                            "alt": 3716
                          },
                          "children": []
                        },
                        {
                          "id": "ind224",
                          "name": "Falcon",
                          "type": "individual",
                          "position": {
                            "lat": 46.500249,
                            "lon": 8.084552,
                            "alt": 3713
                          },
                          "children": []
                        },
                        {
                          "id": "ind225",
                          "name": "Raptor",
                          "type": "individual",
                          "position": {
                            "lat": 46.500232,
                            "lon": 8.084443,
                            "alt": 3704
                          },
                          "children": []
                        },
                        {
                          "id": "ind226",
                          "name": "Ghost",
                          "type": "individual",
                          "position": {
                            "lat": 46.500074,
                            "lon": 8.084227,
                            "alt": 3676
                          },
                          "children": []
                        },
                        {
                          "id": "ind227",
                          "name": "Shadow",
                          "type": "individual",
                          "position": {
                            "lat": 46.500148,
                            "lon": 8.084188,
                            "alt": 3680
                          },
                          "children": []
                        },
                        {
                          "id": "ind228",
                          "name": "Phoenix",
                          "type": "individual",
                          "position": {
                            "lat": 46.500352,
                            "lon": 8.084247,
                            "alt": 3702
                          },
                          "children": []
                        },
                        {
                          "id": "ind229",
                          "name": "Thunder",
                          "type": "individual",
                          "position": {
                            "lat": 46.500151,
                            "lon": 8.083999,
                            "alt": 3670
                          },
                          "children": []
                        },
                        {
                          "id": "ind230",
                          "name": "Eagle",
                          "type": "individual",
                          "position": {
                            "lat": 46.500209,
                            "lon": 8.083947,
                            "alt": 3673
                          },
                          "children": []
                        }
                      ],
                      "commander": {
                        "id": "cmd231",
                        "name": "Cmd. Wolf",
                        "position": {
                          "lat": 46.500034,
                          "lon": 8.08341,
                          "alt": 3633
                        }
                      }
                    },
                    {
                      "id": "sq245",
                      "name": "17 Sqd",
                      "type": "squad",
                      "children": [
                        {
                          "id": "ind233",
                          "name": "Cobra",
                          "type": "individual",
                          "position": {
                            "lat": 46.499636,
                            "lon": 8.082945,
                            "alt": 3606
                          },
                          "children": []
                        },
                        {
                          "id": "ind234",
                          "name": "Frost",
                          "type": "individual",
                          "position": {
                            "lat": 46.499726,
                            "lon": 8.082889,
                            "alt": 3609
                          },
                          "children": []
                        },
                        {
                          "id": "ind235",
                          "name": "Delta",
                          "type": "individual",
                          "position": {
                            "lat": 46.499702,
                            "lon": 8.082795,
                            "alt": 3607
                          },
                          "children": []
                        },
                        {
                          "id": "ind236",
                          "name": "Romeo",
                          "type": "individual",
                          "position": {
                            "lat": 46.499681,
                            "lon": 8.082702,
                            "alt": 3605
                          },
                          "children": []
                        },
                        {
                          "id": "ind237",
                          "name": "Ember",
                          "type": "individual",
                          "position": {
                            "lat": 46.499688,
                            "lon": 8.082618,
                            "alt": 3604
                          },
                          "children": []
                        },
                        {
                          "id": "ind238",
                          "name": "Marshal",
                          "type": "individual",
                          "position": {
                            "lat": 46.499625,
                            "lon": 8.082511,
                            "alt": 3604
                          },
                          "children": []
                        },
                        {
                          "id": "ind239",
                          "name": "Nitro",
                          "type": "individual",
                          "position": {
                            "lat": 46.499646,
                            "lon": 8.082432,
                            "alt": 3605
                          },
                          "children": []
                        },
                        {
                          "id": "ind240",
                          "name": "Onyx",
                          "type": "individual",
                          "position": {
                            "lat": 46.499729,
                            "lon": 8.082374,
                            "alt": 3606
                          },
                          "children": []
                        },
                        {
                          "id": "ind241",
                          "name": "Panther",
                          "type": "individual",
                          "position": {
                            "lat": 46.499834,
                            "lon": 8.082323,
                            "alt": 3607
                          },
                          "children": []
                        },
                        {
                          "id": "ind242",
                          "name": "Bolt",
                          "type": "individual",
                          "position": {
                            "lat": 46.499693,
                            "lon": 8.082189,
                            "alt": 3612
                          },
                          "children": []
                        },
                        {
                          "id": "ind243",
                          "name": "Kraken",
                          "type": "individual",
                          "position": {
                            "lat": 46.499777,
                            "lon": 8.082131,
                            "alt": 3606
                          },
                          "children": []
                        }
                      ],
                      "commander": {
                        "id": "cmd244",
                        "name": "Cmd. Trident",
                        "position": {
                          "lat": 46.500276,
                          "lon": 8.08246,
                          "alt": 3640
                        }
                      }
                    },
                    {
                      "id": "sq258",
                      "name": "18 Sqd",
                      "type": "squad",
                      "children": [
                        {
                          "id": "ind246",
                          "name": "Forge",
                          "type": "individual",
                          "position": {
                            "lat": 46.501107,
                            "lon": 8.081578,
                            "alt": 3662
                          },
                          "children": []
                        },
                        {
                          "id": "ind247",
                          "name": "Interceptor",
                          "type": "individual",
                          "position": {
                            "lat": 46.501268,
                            "lon": 8.081478,
                            "alt": 3663
                          },
                          "children": []
                        },
                        {
                          "id": "ind248",
                          "name": "Jackal",
                          "type": "individual",
                          "position": {
                            "lat": 46.501302,
                            "lon": 8.081389,
                            "alt": 3662
                          },
                          "children": []
                        },
                        {
                          "id": "ind249",
                          "name": "Longbow",
                          "type": "individual",
                          "position": {
                            "lat": 46.501298,
                            "lon": 8.081303,
                            "alt": 3661
                          },
                          "children": []
                        },
                        {
                          "id": "ind250",
                          "name": "Mongoose",
                          "type": "individual",
                          "position": {
                            "lat": 46.501115,
                            "lon": 8.081232,
                            "alt": 3661
                          },
                          "children": []
                        },
                        {
                          "id": "ind251",
                          "name": "Nighthawk",
                          "type": "individual",
                          "position": {
                            "lat": 46.501099,
                            "lon": 8.081147,
                            "alt": 3662
                          },
                          "children": []
                        },
                        {
                          "id": "ind252",
                          "name": "Papa",
                          "type": "individual",
                          "position": {
                            "lat": 46.50125,
                            "lon": 8.081048,
                            "alt": 3662
                          },
                          "children": []
                        },