{
  "id": "bde3641",
  "name": "1 Bde",
  "type": "brigade",
  "children": [
    {
      "id": "rgt1211",
      "name": "1 Rgt",
      "type": "regiment",
      "children": [
        {
          "id": "bn401",
          "name": "1 Bn",
          "type": "battalion",
          "children": [
            {
              "id": "co131",
              "name": "A Co",
              "type": "company",
              "children": [
                {
                  "id": "pl41",
                  "name": "1 Plt",
                  "type": "platoon",
                  "children": [
                    {
                      "id": "sq13",
                      "name": "1 Sqd",
                      "type": "squad",
                      "children": [
                        {
                          "id": "ind1",
                          "name": "Viper",
                          "type": "individual",
                          "position": {
                            "lat": 46.510038,
                            "lon": 8.099755,
                            "alt": 2538
                          },
                          "children": []
                        },
                        {
                          "id": "ind2",
                          "name": "Falcon",
                          "type": "individual",
                          "position": {
                            "lat": 46.509944,
                            "lon": 8.099724,
                            "alt": 2532
                          },
                          "children": []
                        },
                        {
                          "id": "ind3",
                          "name": "Raptor",
                          "type": "individual",
                          "position": {
                            "lat": 46.509908,
                            "lon": 8.099568,
                            "alt": 2516
                          },
                          "children": []
                        },
                        {
                          "id": "ind4",
                          "name": "Ghost",
                          "type": "individual",
                          "position": {
                            "lat": 46.509717,
                            "lon": 8.099748,
                            "alt": 2547
                          },
                          "children": []
                        },
                        {
                          "id": "ind5",
                          "name": "Shadow",
                          "type": "individual",
                          "position": {
                            "lat": 46.509634,
                            "lon": 8.099693,
                            "alt": 2534
                          },
                          "children": []
                        },
                        {
                          "id": "ind6",
                          "name": "Phoenix",
                          "type": "individual",
                          "position": {
                            "lat": 46.50954,
                            "lon": 8.099662,
                            "alt": 2463
                          },
                          "children": []
                        },
                        {
                          "id": "ind7",
                          "name": "Thunder",
                          "type": "individual",
                          "position": {
                            "lat": 46.509494,
                            "lon": 8.09953,
                            "alt": 2472
                          },
                          "children": []
                        },
                        {
                          "id": "ind8",
                          "name": "Eagle",
                          "type": "individual",
                          "position": {
                            "lat": 46.50942,
                            "lon": 8.099457,
                            "alt": 2551
                          },
                          "children": []
                        },
                        {
                          "id": "ind9",
                          "name": "Wolf",
                          "type": "individual",
                          "position": {
                            "lat": 46.509458,
                            "lon": 8.099142,
                            "alt": 2451
                          },
                          "children": []
                        },
                        {
                          "id": "ind10",
                          "name": "Cobra",
                          "type": "individual",
                          "position": {
                            "lat": 46.509269,
                            "lon": 8.099315,
                            "alt": 2453
                          },
                          "children": []
                        },
                        {
                          "id": "ind11",
                          "name": "Frost",
                          "type": "individual",
                          "position": {
                            "lat": 46.509257,
                            "lon": 8.099108,
                            "alt": 2456
                          },
                          "children": []
                        }
                      ],
                      "commander": {
                        "id": "cmd12",
                        "name": "Cmd. Delta",
                        "position": {
                          "lat": 46.509147,
                          "lon": 8.100507,
                          "alt": 2457
                        }
                      }
                    },
                    {
                      "id": "sq26",
                      "name": "2 Sqd",
                      "type": "squad",
                      "children": [
                        {
                          "id": "ind14",
                          "name": "Romeo",
                          "type": "individual",
                          "position": {
                            "lat": 46.509073,
                            "lon": 8.099233,
                            "alt": 2465
                          },
                          "children": []
                        },
                        {
                          "id": "ind15",
                          "name": "Ember",
                          "type": "individual",
                          "position": {
                            "lat": 46.508911,
                            "lon": 8.099341,
                            "alt": 2501
                          },
                          "children": []
                        },
                        {
                          "id": "ind16",
                          "name": "Marshal",
                          "type": "individual",
                          "position": {
                            "lat": 46.508792,
                            "lon": 8.09936,
                            "alt": 2489
                          },
                          "children": []
                        },
                        {
                          "id": "ind17",
                          "name": "Nitro",
                          "type": "individual",
                          "position": {
                            "lat": 46.508831,
                            "lon": 8.099052,
                            "alt": 2476
                          },
                          "children": []
                        },
                        {
                          "id": "ind18",
                          "name": "Onyx",
                          "type": "individual",
                          "position": {
                            "lat": 46.508749,
                            "lon": 8.098996,
                            "alt": 2550
                          },
                          "children": []
                        },
                        {
                          "id": "ind19",
                          "name": "Panther",
                          "type": "individual",
                          "position": {
                            "lat": 46.508607,
                            "lon": 8.099063,
                            "alt": 2458
                          },
                          "children": []
                        },
                        {
                          "id": "ind20",
                          "name": "Bolt",
                          "type": "individual",
                          "position": {
                            "lat": 46.508654,
                            "lon": 8.098741,
                            "alt": 2458
                          },
                          "children": []
                        },
                        {
                          "id": "ind21",
                          "name": "Kraken",
                          "type": "individual",
                          "position": {
                            "lat": 46.508433,
                            "lon": 8.098971,
                            "alt": 2548
                          },
                          "children": []
                        },
                        {
                          "id": "ind22",
                          "name": "Trident",
                          "type": "individual",
                          "position": {
                            "lat": 46.508488,
                            "lon": 8.098629,
                            "alt": 2478
                          },
                          "children": []
                        },
                        {
                          "id": "ind23",
                          "name": "Forge",
                          "type": "individual",
                          "position": {
                            "lat": 46.508355,
                            "lon": 8.098679,
                            "alt": 2534
                          },
                          "children": []
                        },
                        {
                          "id": "ind24",
                          "name": "Interceptor",
                          "type": "individual",
                          "position": {
                            "lat": 46.508218,
                            "lon": 8.098735,
                            "alt": 2474
                          },
                          "children": []
                        }
                      ],
                      "commander": {
                        "id": "cmd25",
                        "name": "Cmd. Jackal",
                        "position": {
                          "lat": 46.508299,
                          "lon": 8.099701,
                          "alt": 2510
                        }
                      }
                    },
                    {
                      "id": "sq39",
                      "name": "3 Sqd",
                      "type": "squad",
                      "children": [
                        {
                          "id": "ind27",
                          "name": "Longbow",
                          "type": "individual",
                          "position": {
                            "lat": 46.508058,
                            "lon": 8.098794,
                            "alt": 2539
                          },
                          "children": []
                        },
                        {
                          "id": "ind28",
                          "name": "Mongoose",
                          "type": "individual",
                          "position": {
                            "lat": 46.508026,
                            "lon": 8.098638,
                            "alt": 2551
                          },
                          "children": []
                        },
                        {
                          "id": "ind29",
                          "name": "Nighthawk",
                          "type": "individual",
                          "position": {
                            "lat": 46.50795,
                            "lon": 8.098569,
                            "alt": 2549
                          },
                          "children": []
                        },
                        {
                          "id": "ind30",
                          "name": "Papa",
                          "type": "individual",
                          "position": {
                            "lat": 46.50792,
                            "lon": 8.09841,
                            "alt": 2513
                          },
                          "children": []
                        },
                        {
                          "id": "ind31",
                          "name": "Quebec",
                          "type": "individual",
                          "position": {
                            "lat": 46.507828,
                            "lon": 8.098371,
                            "alt": 2495
                          },
                          "children": []
                        },
                        {
                          "id": "ind32",
                          "name": "Sierra",
                          "type": "individual",
                          "position": {
                            "lat": 46.50773,
                            "lon": 8.098344,
                            "alt": 2482
                          },
                          "children": []
                        },
                        {
                          "id": "ind33",
                          "name": "Whiskey",
                          "type": "individual",
                          "position": {
                            "lat": 46.507644,
                            "lon": 8.098294,
                            "alt": 2544
                          },
                          "children": []
                        },
                        {
                          "id": "ind34",
                          "name": "Flint",
                          "type": "individual",
                          "position": {
                            "lat": 46.507522,
                            "lon": 8.098315,
                            "alt": 2497
                          },
                          "children": []
                        },
                        {
                          "id": "ind35",
                          "name": "Warden",
                          "type": "individual",
                          "position": {
                            "lat": 46.507562,
                            "lon": 8.098018,
                            "alt": 2469
                          },
                          "children": []
                        },
                        {
                          "id": "ind36",
                          "name": "Inferno",
                          "type": "individual",
                          "position": {
                            "lat": 46.507421,
                            "lon": 8.098074,
                            "alt": 2543
                          },
                          "children": []
                        },
                        {
                          "id": "ind37",
                          "name": "Razor",
                          "type": "individual",
                          "position": {
                            "lat": 46.507282,
                            "lon": 8.098129,
                            "alt": 2482
                          },
                          "children": []
                        }
                      ],
                      "commander": {
                        "id": "cmd38",
                        "name": "Cmd. Sentinel",
                        "position": {
                          "lat": 46.507473,
                          "lon": 8.098848,
                          "alt": 2545
                        }
                      }
                    }
                  ],
                  "commander": {
                    "id": "cmd40",
                    "name": "Cmd. Vanguard",
                    "position": {
                      "lat": 46.508115,
                      "lon": 8.100081,
                      "alt": 2509
                    }
                  },
                  "staff": [
                    {
                      "id": "staff42",
                      "name": "Stf. Gladius",
                      "position": {
                        "lat": 46.508263,
                        "lon": 8.100044,
                        "alt": 2509
                      }
                    },
                    {
                      "id": "staff43",
                      "name": "Stf. Outlaw",
                      "position": {
                        "lat": 46.507982,
                        "lon": 8.09991,
                        "alt": 2509
                      }
                    }
                  ]
                },
                {
                  "id": "pl84",
                  "name": "2 Plt",
                  "type": "platoon",
                  "children": [
                    {
                      "id": "sq56",
                      "name": "4 Sqd",
                      "type": "squad",
                      "children": [
                        {
                          "id": "ind44",
                          "name": "Arsenal",
                          "type": "individual",
                          "position": {
                            "lat": 46.507258,
                            "lon": 8.097928,
                            "alt": 2486
                          },
                          "children": []
                        },
                        {
                          "id": "ind45",
                          "name": "Icarus",
                          "type": "individual",
                          "position": {
                            "lat": 46.507157,
                            "lon": 8.097903,
                            "alt": 2489
                          },
                          "children": []
                        },
                        {
                          "id": "ind46",
                          "name": "Nemesis",
                          "type": "individual",
                          "position": {
                            "lat": 46.507133,
                            "lon": 8.097739,
                            "alt": 2510
                          },
                          "children": []
                        },
                        {
                          "id": "ind47",
                          "name": "Corsair",
                          "type": "individual",
                          "position": {
                            "lat": 46.507059,
                            "lon": 8.097664,
                            "alt": 2515
                          },
                          "children": []
                        },
                        {
                          "id": "ind48",
                          "name": "Kestrel",
                          "type": "individual",
                          "position": {
                            "lat": 46.506955,
                            "lon": 8.097645,
                            "alt": 2551
                          },
                          "children": []
                        },
                        {
                          "id": "ind49",
                          "name": "Scorpion",
                          "type": "individual",
                          "position": {
                            "lat": 46.506996,
                            "lon": 8.097361,
                            "alt": 2459
                          },
                          "children": []
                        },
                        {
                          "id": "ind50",
                          "name": "Ace",
                          "type": "individual",
                          "position": {
                            "lat": 46.506845,
                            "lon": 8.097428,
                            "alt": 2474
                          },
                          "children": []
                        },
                        {
                          "id": "ind51",
                          "name": "Revenant",
                          "type": "individual",
                          "position": {
                            "lat": 46.50678,
                            "lon": 8.097338,
                            "alt": 2501
                          },
                          "children": []
                        },
                        {
                          "id": "ind52",
                          "name": "Praetor",
                          "type": "individual",
                          "position": {
                            "lat": 46.50663,
                            "lon": 8.097403,
                            "alt": 2543
                          },
                          "children": []
                        },
                        {
                          "id": "ind53",
                          "name": "Centurion",
                          "type": "individual",
                          "position": {
                            "lat": 46.506704,
                            "lon": 8.097059,
                            "alt": 2546
                          },
                          "children": []
                        },
                        {
                          "id": "ind54",
                          "name": "Condor",
                          "type": "individual",
                          "position": {
                            "lat": 46.506524,
                            "lon": 8.097178,
                            "alt": 2459
                          },
                          "children": []
                        }
                      ],
                      "commander": {
                        "id": "cmd55",
                        "name": "Cmd. Harrier",
                        "position": {
                          "lat": 46.506843,
                          "lon": 8.09764,
                          "alt": 2543
                        }
                      }
                    },
                    {
                      "id": "sq69",
                      "name": "5 Sqd",
                      "type": "squad",
                      "children": [
                        {
                          "id": "ind57",
                          "name": "Monarch",
                          "type": "individual",
                          "position": {
                            "lat": 46.506984,
                            "lon": 8.096109,
                            "alt": 2495
                          },
                          "children": []
                        },
                        {
                          "id": "ind58",
                          "name": "Sovereign",
                          "type": "individual",
                          "position": {
                            "lat": 46.506872,
                            "lon": 8.096098,
                            "alt": 2473
                          },
                          "children": []
                        },
                        {
                          "id": "ind59",
                          "name": "Sledgehammer",
                          "type": "individual",
                          "position": {
                            "lat": 46.506847,
                            "lon": 8.095941,
                            "alt": 2476
                          },
                          "children": []
                        },
                        {
                          "id": "ind60",
                          "name": "Tomahawk",
                          "type": "individual",
                          "position": {
                            "lat": 46.506828,
                            "lon": 8.095773,
                            "alt": 2491
                          },
                          "children": []
                        },
                        {
                          "id": "ind61",
                          "name": "Warlock",
                          "type": "individual",
                          "position": {
                            "lat": 46.506707,
                            "lon": 8.095778,
                            "alt": 2486
                          },
                          "children": []
                        },
                        {
                          "id": "ind62",
                          "name": "Ares",
                          "type": "individual",
                          "position": {
                            "lat": 46.506631,
                            "lon": 8.095706,
                            "alt": 2479
                          },
                          "children": []
                        },
                        {
                          "id": "ind63",
                          "name": "Raptor",
                          "type": "individual",
                          "position": {
                            "lat": 46.506546,
                            "lon": 8.095651,
                            "alt": 2513
                          },
                          "children": []
                        },
                        {
                          "id": "ind64",
                          "name": "Bulldog",
                          "type": "individual",
                          "position": {
                            "lat": 46.506515,
                            "lon": 8.095503,
                            "alt": 2506
                          },
                          "children": []
                        },
                        {
                          "id": "ind65",
                          "name": "Striker",
                          "type": "individual",
                          "position": {
                            "lat": 46.506342,
                            "lon": 8.095594,
                            "alt": 2471
                          },
                          "children": []
                        },
                        {
                          "id": "ind66",
                          "name": "Overlord",
                          "type": "individual",
                          "position": {
                            "lat": 46.50632,
                            "lon": 8.095432,
                            "alt": 2462
                          },
                          "children": []
                        },
                        {
                          "id": "ind67",
                          "name": "Sabre",
                          "type": "individual",
                          "position": {
                            "lat": 46.506351,
                            "lon": 8.095182,
                            "alt": 2538
                          },
                          "children": []
                        }
                      ],
                      "commander": {
                        "id": "cmd68",
                        "name": "Cmd. Talon",
                        "position": {
                          "lat": 46.505863,
                          "lon": 8.096994,
                          "alt": 2522
                        }
                      }
                    },
                    {
                      "id": "sq82",
                      "name": "6 Sqd",
                      "type": "squad",
                      "children": [
                        {
                          "id": "ind70",
                          "name": "Bravo",
                          "type": "individual",
                          "position": {
                            "lat": 46.506107,
                            "lon": 8.09539,
                            "alt": 2504
                          },
                          "children": []
                        },
                        {
                          "id": "ind71",
                          "name": "Spartan",
                          "type": "individual",
                          "position": {
                            "lat": 46.506133,
                            "lon": 8.095162,
                            "alt": 2505
                          },
                          "children": []
                        },
                        {
                          "id": "ind72",
                          "name": "Titan",
                          "type": "individual",
                          "position": {
                            "lat": 46.505999,
                            "lon": 8.095177,
                            "alt": 2527
                          },
                          "children": []
                        },
                        {
                          "id": "ind73",
                          "name": "Nomad",
                          "type": "individual",
                          "position": {
                            "lat": 46.505977,
                            "lon": 8.095022,
                            "alt": 2490
                          },
                          "children": []
                        },
                        {
                          "id": "ind74",
                          "name": "Blaze",
                          "type": "individual",
                          "position": {
                            "lat": 46.505791,
                            "lon": 8.095116,
                            "alt": 2461
                          },
                          "children": []
                        },
                        {
                          "id": "ind75",
                          "name": "Hammer",
                          "type": "individual",
                          "position": {
                            "lat": 46.505714,
                            "lon": 8.095045,
                            "alt": 2544
                          },
                          "children": []
                        },
                        {
                          "id": "ind76",
                          "name": "Iron",
                          "type": "individual",
                          "position": {
                            "lat": 46.505782,
                            "lon": 8.094754,
                            "alt": 2526
                          },
                          "children": []
                        },
                        {
                          "id": "ind77",
                          "name": "Javelin",
                          "type": "individual",
                          "position": {
                            "lat": 46.505702,
                            "lon": 8.094686,
                            "alt": 2472
                          },
                          "children": []
                        },
                        {
                          "id": "ind78",
                          "name": "Knight",
                          "type": "individual",
                          "position": {
                            "lat": 46.505677,
                            "lon": 8.094537,
                            "alt": 2469
                          },
                          "children": []
                        },
                        {
                          "id": "ind79",
                          "name": "Lancer",
                          "type": "individual",
                          "position": {
                            "lat": 46.505604,
                            "lon": 8.094459,
                            "alt": 2521
                          },
                          "children": []
                        },
                        {
                          "id": "ind80",
                          "name": "Storm",
                          "type": "individual",
                          "position": {
                            "lat": 46.505443,
                            "lon": 8.094516,
                            "alt": 2527
                          },
                          "children": []
                        }
                      ],
                      "commander": {
                        "id": "cmd81",
                        "name": "Cmd. Tempest",
                        "position": {
                          "lat": 46.505275,
                          "lon": 8.09571,
                          "alt": 2518
                        }
                      }
                    }
                  ],
                  "commander": {
                    "id": "cmd83",
                    "name": "Cmd. Valkyrie",
                    "position": {
                      "lat": 46.505906,
                      "lon": 8.096923,
                      "alt": 2458
                    }
                  },
                  "staff": [
                    {
                      "id": "staff85",
                      "name": "Stf. Apex",
                      "position": {
                        "lat": 46.506002,
                        "lon": 8.096979,
                        "alt": 2458
                      }
                    },
                    {
                      "id": "staff86",
                      "name": "Stf. Fury",
                      "position": {
                        "lat": 46.505882,
                        "lon": 8.097148,
                        "alt": 2458
                      }
                    }
                  ]
                },
                {
                  "id": "pl127",
                  "name": "3 Plt",
                  "type": "platoon",
                  "children": [
                    {
                      "id": "sq99",
                      "name": "7 Sqd",
                      "type": "squad",
                      "children": [
                        {
                          "id": "ind87",
                          "name": "Grizzly",
                          "type": "individual",
                          "position": {
                            "lat": 46.505486,
                            "lon": 8.094306,
                            "alt": 2536
                          },
                          "children": []
                        },
                        {
                          "id": "ind88",
                          "name": "Hornet",
                          "type": "individual",
                          "position": {
                            "lat": 46.505411,
                            "lon": 8.09423,
                            "alt": 2507
                          },
                          "children": []
                        },
                        {
                          "id": "ind89",
                          "name": "Inferno",
                          "type": "individual",
                          "position": {
                            "lat": 46.505342,
                            "lon": 8.094145,
                            "alt": 2532
                          },
                          "children": []
                        },
                        {
                          "id": "ind90",
                          "name": "Neptune",
                          "type": "individual",
                          "position": {
                            "lat": 46.505191,
                            "lon": 8.094172,
                            "alt": 2486
                          },
                          "children": []
                        },
                        {
                          "id": "ind91",
                          "name": "Odin",
                          "type": "individual",
                          "position": {
                            "lat": 46.505141,
                            "lon": 8.094061,
                            "alt": 2518
                          },
                          "children": []
                        },
                        {
                          "id": "ind92",
                          "name": "Patriot",
                          "type": "individual",
                          "position": {
                            "lat": 46.505002,
                            "lon": 8.094071,
                            "alt": 2540
                          },
                          "children": []
                        },
                        {
                          "id": "ind93",
                          "name": "Cipher",
                          "type": "individual",
                          "position": {
                            "lat": 46.505077,
                            "lon": 8.093793,
                            "alt": 2479
                          },
                          "children": []
                        },
                        {
                          "id": "ind94",
                          "name": "Drake",
                          "type": "individual",
                          "position": {
                            "lat": 46.504939,
                            "lon": 8.0938,
                            "alt": 2532
                          },
                          "children": []
                        },
                        {
                          "id": "ind95",
                          "name": "Legion",
                          "type": "individual",
                          "position": {
                            "lat": 46.504959,
                            "lon": 8.093596,
                            "alt": 2519
                          },
                          "children": []
                        },
                        {
                          "id": "ind96",
                          "name": "Mirage",
                          "type": "individual",
                          "position": {
                            "lat": 46.504873,
                            "lon": 8.093534,
                            "alt": 2467
                          },
                          "children": []
                        },
                        {
                          "id": "ind97",
                          "name": "Spectre",
                          "type": "individual",
                          "position": {
                            "lat": 46.504837,
                            "lon": 8.093405,
                            "alt": 2453
                          },
                          "children": []
                        }
                      ],
                      "commander": {
                        "id": "cmd98",
                        "name": "Cmd. Torque",
                        "position": {
                          "lat": 46.504369,
                          "lon": 8.094925,
                          "alt": 2515
                        }
                      }
                    },
                    {
                      "id": "sq112",
                      "name": "8 Sqd",
                      "type": "squad",
                      "children": [
                        {
                          "id": "ind100",
                          "name": "Dynamo",
                          "type": "individual",
                          "position": {
                            "lat": 46.504694,
                            "lon": 8.093404,
                            "alt": 2491
                          },
                          "children": []
                        },
                        {
                          "id": "ind101",
                          "name": "Eclipse",
                          "type": "individual",
                          "position": {
                            "lat": 46.504717,
                            "lon": 8.093209,
                            "alt": 2488
                          },
                          "children": []
                        },
                        {
                          "id": "ind102",
                          "name": "Goliath",
                          "type": "individual",
                          "position": {
                            "lat": 46.504665,
                            "lon": 8.093102,
                            "alt": 2480
                          },
                          "children": []
                        },
                        {
                          "id": "ind103",
                          "name": "Hydra",
                          "type": "individual",
                          "position": {
                            "lat": 46.504528,
                            "lon": 8.093096,
                            "alt": 2527
                          },
                          "children": []
                        },
                        {
                          "id": "ind104",
                          "name": "Leopard",
                          "type": "individual",
                          "position": {
                            "lat": 46.504402,
                            "lon": 8.093077,
                            "alt": 2504
                          },
                          "children": []
                        },
                        {
                          "id": "ind105",
                          "name": "Mustang",
                          "type": "individual",
                          "position": {
                            "lat": 46.504457,
                            "lon": 8.092845,
                            "alt": 2483
                          },
                          "children": []
                        },
                        {
                          "id": "ind106",
                          "name": "Nova",
                          "type": "individual",
                          "position": {
                            "lat": 46.504285,
                            "lon": 8.092879,
                            "alt": 2553
                          },
                          "children": []
                        },
                        {
                          "id": "ind107",
                          "name": "Orion",
                          "type": "individual",
                          "position": {
                            "lat": 46.504179,
                            "lon": 8.092836,
                            "alt": 2483
                          },
                          "children": []
                        },
                        {
                          "id": "ind108",
                          "name": "Phantom",
                          "type": "individual",
                          "position": {
                            "lat": 46.504179,
                            "lon": 8.09267,
                            "alt": 2515
                          },
                          "children": []
                        },
                        {
                          "id": "ind109",
                          "name": "Viking",
                          "type": "individual",
                          "position": {
                            "lat": 46.504171,
                            "lon": 8.092511,
                            "alt": 2490
                          },
                          "children": []
                        },
                        {
                          "id": "ind110",
                          "name": "Wolverine",
                          "type": "individual",
                          "position": {
                            "lat": 46.504179,
                            "lon": 8.092334,
                            "alt": 2552
                          },
                          "children": []
                        }
                      ],
                      "commander": {
                        "id": "cmd111",
                        "name": "Cmd. Zenith",
                        "position": {
                          "lat": 46.503755,
                          "lon": 8.093671,
                          "alt": 2485
                        }
                      }
                    },
                    {
                      "id": "sq125",
                      "name": "9 Sqd",
                      "type": "squad",
                      "children": [
                        {
                          "id": "ind113",
                          "name": "Atlas",
                          "type": "individual",
                          "position": {
                            "lat": 46.504134,
                            "lon": 8.092242,
                            "alt": 2463
                          },
                          "children": []
                        },
                        {
                          "id": "ind114",
                          "name": "Bandit",
                          "type": "individual",
                          "position": {
                            "lat": 46.504043,
                            "lon": 8.092175,
                            "alt": 2470
                          },
                          "children": []
                        },
                        {
                          "id": "ind115",
                          "name": "Dagger",
                          "type": "individual",
                          "position": {
                            "lat": 46.503956,
                            "lon": 8.092105,
                            "alt": 2540
                          },
                          "children": []
                        },
                        {
                          "id": "ind116",
                          "name": "Enforcer",
                          "type": "individual",
                          "position": {
                            "lat": 46.50388,
                            "lon": 8.092022,
                            "alt": 2456
                          },
                          "children": []
                        },
                        {
                          "id": "ind117",
                          "name": "Foxhound",
                          "type": "individual",
                          "position": {
                            "lat": 46.503996,
                            "lon": 8.091746,
                            "alt": 2454
                          },
                          "children": []
                        },
                        {
                          "id": "ind118",
                          "name": "Gunner",
                          "type": "individual",
                          "position": {
                            "lat": 46.503814,
                            "lon": 8.091772,
                            "alt": 2525
                          },
                          "children": []
                        },
                        {
                          "id": "ind119",
                          "name": "Hercules",
                          "type": "individual",
                          "position": {
                            "lat": 46.503897,
                            "lon": 8.091529,
                            "alt": 2547
                          },
                          "children": []
                        },
                        {
                          "id": "ind120",
                          "name": "Juggernaut",
                          "type": "individual",
                          "position": {
                            "lat": 46.503765,
                            "lon": 8.091504,
                            "alt": 2532
                          },
                          "children": []
                        },
                        {
                          "id": "ind121",
                          "name": "Kodiak",
                          "type": "individual",
                          "position": {
                            "lat": 46.503791,
                            "lon": 8.091319,
                            "alt": 2486
                          },
                          "children": []
                        },
                        {
                          "id": "ind122",
                          "name": "Lynx",
                          "type": "individual",
                          "position": {
                            "lat": 46.503559,
                            "lon": 8.091395,
                            "alt": 2508
                          },
                          "children": []
                        },
                        {
                          "id": "ind123",
                          "name": "Mantis",
                          "type": "individual",
                          "position": {
                            "lat": 46.503654,
                            "lon": 8.091141,
                            "alt": 2494
                          },
                          "children": []
                        }
                      ],
                      "commander": {
                        "id": "cmd124",
                        "name": "Cmd. Bishop",
                        "position": {
                          "lat": 46.503165,
                          "lon": 8.092428,
                          "alt": 2458
                        }
                      }
                    }
                  ],
                  "commander": {
                    "id": "cmd126",
                    "name": "Cmd. Castle",
                    "position": {
                      "lat": 46.503456,
                      "lon": 8.094024,
                      "alt": 2535
                    }
                  },
                  "staff": [
                    {
                      "id": "staff128",
                      "name": "Stf. Draco",
                      "position": {
                        "lat": 46.503428,
                        "lon": 8.094165,
                        "alt": 2535
                      }
                    },
                    {
                      "id": "staff129",
                      "name": "Stf. Enigma",
                      "position": {
                        "lat": 46.503423,
                        "lon": 8.094227,
                        "alt": 2535
                      }
                    }
                  ]
                }
              ],
              "commander": {
                "id": "cmd130",
                "name": "Cmd. Firestorm",
                "position": {
                  "lat": 46.505149,
                  "lon": 8.098192,
                  "alt": 2498
                }
              },
              "staff": [
                {
                  "id": "staff132",
                  "name": "Stf. Quicksilver",
                  "position": {
                    "lat": 46.505229,
                    "lon": 8.09823,
                    "alt": 2498
                  }
                },
                {
                  "id": "staff133",
                  "name": "Stf. Ronin",
                  "position": {
                    "lat": 46.505151,
                    "lon": 8.098071,
                    "alt": 2498
                  }
                }
              ]
            },
            {
              "id": "co264",
              "name": "B Co",
              "type": "company",
              "children": [
                {
                  "id": "pl174",
                  "name": "11 Plt",
                  "type": "platoon",
                  "children": [
                    {
                      "id": "sq146",
                      "name": "10 Sqd",
                      "type": "squad",
                      "children": [
                        {
                          "id": "ind134",
                          "name": "Umbra",
                          "type": "individual",
                          "position": {
                            "lat": 46.503258,
                            "lon": 8.091313,
                            "alt": 2549
                          },
                          "children": []
                        },
                        {
                          "id": "ind135",
                          "name": "Vertex",
                          "type": "individual",
                          "position": {
                            "lat": 46.503232,
                            "lon": 8.091185,
                            "alt": 2552
                          },
                          "children": []
                        },
                        {
                          "id": "ind136",
                          "name": "Wildfire",
                          "type": "individual",
                          "position": {
                            "lat": 46.503187,
                            "lon": 8.091071,
                            "alt": 2541
                          },
                          "children": []
                        },
                        {
                          "id": "ind137",
                          "name": "Xenon",
                          "type": "individual",
                          "position": {
                            "lat": 46.503116,
                            "lon": 8.090981,
                            "alt": 2520
                          },
                          "children": []
                        },
                        {
                          "id": "ind138",
                          "name": "Yeti",
                          "type": "individual",
                          "position": {
                            "lat": 46.503131,
                            "lon": 8.090818,
                            "alt": 2510
                          },
                          "children": []
                        },
                        {
                          "id": "ind139",
                          "name": "Breaker",
                          "type": "individual",
                          "position": {
                            "lat": 46.502937,
                            "lon": 8.090831,
                            "alt": 2480
                          },
                          "children": []
                        },
                        {
                          "id": "ind140",
                          "name": "Dominator",
                          "type": "individual",
                          "position": {
                            "lat": 46.502976,
                            "lon": 8.090647,
                            "alt": 2551
                          },
                          "children": []
                        },
                        {
                          "id": "ind141",
                          "name": "Impulse",
                          "type": "individual",
                          "position": {
                            "lat": 46.50292,
                            "lon": 8.090544,
                            "alt": 2506
                          },
                          "children": []
                        },
                        {
                          "id": "ind142",
                          "name": "Jester",
                          "type": "individual",
                          "position": {
                            "lat": 46.502975,
                            "lon": 8.090346,
                            "alt": 2478
                          },
                          "children": []
                        },
                        {
                          "id": "ind143",
                          "name": "Rogue",
                          "type": "individual",
                          "position": {
                            "lat": 46.502822,
                            "lon": 8.090326,
                            "alt": 2496
                          },
                          "children": []
                        },
                        {
                          "id": "ind144",
                          "name": "Maverick",
                          "type": "individual",
                          "position": {
                            "lat": 46.502695,
                            "lon": 8.090282,
                            "alt": 2532
                          },
                          "children": []
                        }
                      ],
                      "commander": {
                        "id": "cmd145",
                        "name": "Cmd. Echo",
                        "position": {
                          "lat": 46.502549,
                          "lon": 8.091158,
                          "alt": 2537
                        }
                      }
                    },
                    {
                      "id": "sq159",
                      "name": "11 Sqd",
                      "type": "squad",
                      "children": [
                        {
                          "id": "ind147",
                          "name": "Foxtrot",
                          "type": "individual",
                          "position": {
                            "lat": 46.502703,
                            "lon": 8.090096,
                            "alt": 2497
                          },
                          "children": []
                        },
                        {
                          "id": "ind148",
                          "name": "Kilo",
                          "type": "individual",
                          "position": {
                            "lat": 46.502569,
                            "lon": 8.090044,
                            "alt": 2541
                          },
                          "children": []
                        },
                        {
                          "id": "ind149",
                          "name": "Lima",
                          "type": "individual",
                          "position": {
                            "lat": 46.502636,
                            "lon": 8.089853,
                            "alt": 2513
                          },
                          "children": []
                        },
                        {
                          "id": "ind150",
                          "name": "Oscar",
                          "type": "individual",
                          "position": {
                            "lat": 46.502615,
                            "lon": 8.089724,
                            "alt": 2496
                          },
                          "children": []
                        },
                        {
                          "id": "ind151",
                          "name": "Tango",
                          "type": "individual",
                          "position": {
                            "lat": 46.502506,
                            "lon": 8.089655,
                            "alt": 2469
                          },
                          "children": []
                        },
                        {
                          "id": "ind152",
                          "name": "Zulu",
                          "type": "individual",
                          "position": {
                            "lat": 46.502464,
                            "lon": 8.08954,
                            "alt": 2543
                          },
                          "children": []
                        },
                        {
                          "id": "ind153",
                          "name": "Archer",
                          "type": "individual",
                          "position": {
                            "lat": 46.502493,
                            "lon": 8.089375,
                            "alt": 2515
                          },
                          "children": []
                        },
                        {
                          "id": "ind154",
                          "name": "Hawk",
                          "type": "individual",
                          "position": {
                            "lat": 46.502456,
                            "lon": 8.089257,
                            "alt": 2523
                          },
                          "children": []
                        },
                        {
                          "id": "ind155",
                          "name": "Reaper",
                          "type": "individual",
                          "position": {
                            "lat": 46.502294,
                            "lon": 8.089224,
                            "alt": 2523
                          },
                          "children": []
                        },
                        {
                          "id": "ind156",
                          "name": "Phalanx",
                          "type": "individual",
                          "position": {
                            "lat": 46.502374,
                            "lon": 8.089025,
                            "alt": 2483
                          },
                          "children": []
                        },
                        {
                          "id": "ind157",
                          "name": "Rampart",
                          "type": "individual",
                          "position": {
                            "lat": 46.50227,
                            "lon": 8.088952,
                            "alt": 2473
                          },
                          "children": []
                        }
                      ],
                      "commander": {
                        "id": "cmd158",
                        "name": "Cmd. Stalker",
                        "position": {
                          "lat": 46.502188,
                          "lon": 8.08973,
                          "alt": 2537
                        }
                      }
                    },
                    {
                      "id": "sq172",
                      "name": "12 Sqd",
                      "type": "squad",
                      "children": [
                        {
                          "id": "ind160",
                          "name": "Tigershark",
                          "type": "individual",
                          "position": {
                            "lat": 46.502621,
                            "lon": 8.08857,
                            "alt": 2544
                          },
                          "children": []
                        },
                        {
                          "id": "ind161",
                          "name": "Vandal",
                          "type": "individual",
                          "position": {
                            "lat": 46.502512,
                            "lon": 8.08849,
                            "alt": 2479
                          },
                          "children": []
                        },
                        {
                          "id": "ind162",
                          "name": "Wraith",
                          "type": "individual",
                          "position": {
                            "lat": 46.502506,
                            "lon": 8.088354,
                            "alt": 2477
                          },
                          "children": []
                        },
                        {
                          "id": "ind163",
                          "name": "Brimstone",
                          "type": "individual",
                          "position": {
                            "lat": 46.502504,
                            "lon": 8.088215,
                            "alt": 2495
                          },
                          "children": []
                        },
                        {
                          "id": "ind164",
                          "name": "Cutlass",
                          "type": "individual",
                          "position": {
                            "lat": 46.50242,
                            "lon": 8.088123,
                            "alt": 2531
                          },
                          "children": []
                        },
                        {
                          "id": "ind165",
                          "name": "Deacon",
                          "type": "individual",
                          "position": {
                            "lat": 46.502584,
                            "lon": 8.087894,
                            "alt": 2548
                          },
                          "children": []
                        },
                        {
                          "id": "ind166",
                          "name": "Falcon",
                          "type": "individual",
                          "position": {
                            "lat": 46.502378,
                            "lon": 8.087867,
                            "alt": 2455
                          },
                          "children": []
                        },
                        {
                          "id": "ind167",
                          "name": "Griffin",
                          "type": "individual",
                          "position": {
                            "lat": 46.502404,
                            "lon": 8.087714,
                            "alt": 2545
                          },
                          "children": []
                        },
                        {
                          "id": "ind168",
                          "name": "Havoc",
                          "type": "individual",
                          "position": {
                            "lat": 46.502244,
                            "lon": 8.087662,
                            "alt": 2458
                          },
                          "children": []
                        },
                        {
                          "id": "ind169",
                          "name": "Ironside",
                          "type": "individual",
                          "position": {
                            "lat": 46.502316,
                            "lon": 8.087483,
                            "alt": 2508
                          },
                          "children": []
                        },
                        {
                          "id": "ind170",
                          "name": "Jaguar",
                          "type": "individual",
                          "position": {
                            "lat": 46.502206,
                            "lon": 8.087404,
                            "alt": 2520
                          },
                          "children": []
                        }
                      ],
                      "commander": {
                        "id": "cmd171",
                        "name": "Cmd. Katana",
                        "position": {
                          "lat": 46.501579,
                          "lon": 8.088441,
                          "alt": 2471
                        }
                      }
                    }
                  ],
                  "commander": {
                    "id": "cmd173",
                    "name": "Cmd. Loki",
                    "position": {
                      "lat": 46.501598,
                      "lon": 8.090138,
                      "alt": 2471
                    }
                  },
                  "staff": [
                    {
                      "id": "staff175",
                      "name": "Stf. Magnum",
                      "position": {
                        "lat": 46.501476,
                        "lon": 8.090109,
                        "alt": 2471
                      }
                    },
                    {
                      "id": "staff176",
                      "name": "Stf. Northstar",
                      "position": {
                        "lat": 46.501522,
                        "lon": 8.090124,
                        "alt": 2471
                      }
                    }
                  ]
                },
                {
                  "id": "pl217",
                  "name": "12 Plt",
                  "type": "platoon",
                  "children": [
                    {
                      "id": "sq189",
                      "name": "13 Sqd",
                      "type": "squad",
                      "children": [
                        {
                          "id": "ind177",
                          "name": "Paladin",
                          "type": "individual",
                          "position": {
                            "lat": 46.502163,
                            "lon": 8.087279,
                            "alt": 2545
                          },
                          "children": []
                        },
                        {
                          "id": "ind178",
                          "name": "Rapier",
                          "type": "individual",
                          "position": {
                            "lat": 46.502301,
                            "lon": 8.087087,
                            "alt": 2548
                          },
                          "children": []
                        },
                        {
                          "id": "ind179",
                          "name": "Sable",
                          "type": "individual",
                          "position": {
                            "lat": 46.502246,
                            "lon": 8.086974,
                            "alt": 2532
                          },
                          "children": []
                        },
                        {
                          "id": "ind180",
                          "name": "Templar",
                          "type": "individual",
                          "position": {
                            "lat": 46.502191,
                            "lon": 8.086861,
                            "alt": 2530
                          },
                          "children": []
                        },
                        {
                          "id": "ind181",
                          "name": "Uppercut",
                          "type": "individual",
                          "position": {
                            "lat": 46.502172,
                            "lon": 8.086734,
                            "alt": 2481
                          },
                          "children": []
                        },
                        {
                          "id": "ind182",
                          "name": "Vigil",
                          "type": "individual",
                          "position": {
                            "lat": 46.502088,
                            "lon": 8.086632,
                            "alt": 2478
                          },
                          "children": []
                        },
                        {
                          "id": "ind183",
                          "name": "Warpath",
                          "type": "individual",
                          "position": {
                            "lat": 46.502172,
                            "lon": 8.086463,
                            "alt": 2482
                          },
                          "children": []
                        },
                        {
                          "id": "ind184",
                          "name": "Yellowjacket",
                          "type": "individual",
                          "position": {
                            "lat": 46.502123,
                            "lon": 8.086348,
                            "alt": 2458
                          },
                          "children": []
                        },
                        {
                          "id": "ind185",
                          "name": "Zero",
                          "type": "individual",
                          "position": {
                            "lat": 46.502054,
                            "lon": 8.08624,
                            "alt": 2481
                          },
                          "children": []
                        },
                        {
                          "id": "ind186",
                          "name": "Anvil",
                          "type": "individual",
                          "position": {
                            "lat": 46.501913,
                            "lon": 8.086163,
                            "alt": 2512
                          },
                          "children": []
                        },
                        {
                          "id": "ind187",
                          "name": "Barrage",
                          "type": "individual",
                          "position": {
                            "lat": 46.502031,
                            "lon": 8.085979,
                            "alt": 2515
                          },
                          "children": []
                        }
                      ],
                      "commander": {
                        "id": "cmd188",
                        "name": "Cmd. Claymore",
                        "position": {
                          "lat": 46.501382,
                          "lon": 8.086922,
                          "alt": 2454
                        }
                      }
                    },
                    {
                      "id": "sq202",
                      "name": "14 Sqd",
                      "type": "squad",
                      "children": [
                        {
                          "id": "ind190",
                          "name": "Dire",
                          "type": "individual",
                          "position": {
                            "lat": 46.501386,
                            "lon": 8.086007,
                            "alt": 2488
                          },
                          "children": []
                        },
                        {
                          "id": "ind191",
                          "name": "Epoch",
                          "type": "individual",
                          "position": {
                            "lat": 46.501527,
                            "lon": 8.085834,
                            "alt": 2537
                          },
                          "children": []
                        },
                        {
                          "id": "ind192",
                          "name": "Frostbite",
                          "type": "individual",
                          "position": {
                            "lat": 46.501382,
                            "lon": 8.085742,
                            "alt": 2544
                          },
                          "children": []
                        },
                        {
                          "id": "ind193",
                          "name": "Galahad",
                          "type": "individual",
                          "position": {
                            "lat": 46.501404,
                            "lon": 8.085603,
                            "alt": 2546
                          },
                          "children": []
                        },
                        {
                          "id": "ind194",
                          "name": "Hellfire",
                          "type": "individual",
                          "position": {
                            "lat": 46.501346,
                            "lon": 8.085487,
                            "alt": 2511
                          },
                          "children": []
                        },
                        {
                          "id": "ind195",
                          "name": "Ibex",
                          "type": "individual",
                          "position": {
                            "lat": 46.501316,
                            "lon": 8.085363,
                            "alt": 2533
                          },
                          "children": []
                        },
                        {
                          "id": "ind196",
                          "name": "Joker",
                          "type": "individual",
                          "position": {
                            "lat": 46.501448,
                            "lon": 8.085192,
                            "alt": 2484
                          },
                          "children": []
                        },
                        {
                          "id": "ind197",
                          "name": "Krieg",
                          "type": "individual",
                          "position": {
                            "lat": 46.501418,
                            "lon": 8.085068,
                            "alt": 2542
                          },
                          "children": []
                        },
                        {
                          "id": "ind198",
                          "name": "Locust",
                          "type": "individual",
                          "position": {
                            "lat": 46.501338,
                            "lon": 8.084958,
                            "alt": 2543
                          },
                          "children": []
                        },
                        {
                          "id": "ind199",
                          "name": "Mace",
                          "type": "individual",
                          "position": {
                            "lat": 46.50139,
                            "lon": 8.08481,
                            "alt": 2468
                          },
                          "children": []
                        },
                        {
                          "id": "ind200",
                          "name": "Nightfall",
                          "type": "individual",
                          "position": {
                            "lat": 46.501471,
                            "lon": 8.084655,
                            "alt": 2464
                          },
                          "children": []
                        }
                      ],
                      "commander": {
                        "id": "cmd201",
                        "name": "Cmd. Ogre",
                        "position": {
                          "lat": 46.501046,
                          "lon": 8.08544,
                          "alt": 2515
                        }
                      }
                    },
                    {
                      "id": "sq215",
                      "name": "15 Sqd",
                      "type": "squad",
                      "children": [
                        {
                          "id": "ind203",
                          "name": "Pyre",
                          "type": "individual",
                          "position": {
                            "lat": 46.501515,
                            "lon": 8.084496,
                            "alt": 2538
                          },
                          "children": []
                        },
                        {
                          "id": "ind204",
                          "name": "Quake",
                          "type": "individual",
                          "position": {
                            "lat": 46.501727,
                            "lon": 8.084328,
                            "alt": 2483
                          },
                          "children": []
                        },
                        {
                          "id": "ind205",
                          "name": "Reckoner",
                          "type": "individual",
                          "position": {
                            "lat": 46.501642,
                            "lon": 8.084211,
                            "alt": 2537
                          },
                          "children": []
                        },
                        {
                          "id": "ind206",
                          "name": "Scythe",
                          "type": "individual",
                          "position": {
                            "lat": 46.501532,
                            "lon": 8.0841,
                            "alt": 2486
                          },
                          "children": []
                        },
                        {
                          "id": "ind207",
                          "name": "Typhon",
                          "type": "individual",
                          "position": {
                            "lat": 46.501565,
                            "lon": 8.083962,
                            "alt": 2538
                          },
                          "children": []
                        },
                        {
                          "id": "ind208",
                          "name": "Undertow",
                          "type": "individual",
                          "position": {
                            "lat": 46.501639,
                            "lon": 8.083818,
                            "alt": 2486
                          },
                          "children": []
                        },
                        {
                          "id": "ind209",
                          "name": "Vortex",
                          "type": "individual",
                          "position": {
                            "lat": 46.5016,
                            "lon": 8.083694,
                            "alt": 2502
                          },
                          "children": []
                        },
                        {
                          "id": "ind210",
                          "name": "Wyvern",
                          "type": "individual",
                          "position": {
                            "lat": 46.501598,
                            "lon": 8.083563,
                            "alt": 2536
                          },
                          "children": []
                        },
                        {
                          "id": "ind211",
                          "name": "Crossbow",
                          "type": "individual",
                          "position": {
                            "lat": 46.501527,
                            "lon": 8.083444,
                            "alt": 2514
                          },
                          "children": []
                        },
                        {
                          "id": "ind212",
                          "name": "Bastion",
                          "type": "individual",
                          "position": {
                            "lat": 46.501491,
                            "lon": 8.083319,
                            "alt": 2509
                          },
                          "children": []
                        },
                        {
                          "id": "ind213",
                          "name": "Caliber",
                          "type": "individual",
                          "position": {
                            "lat": 46.501619,
                            "lon": 8.083165,
                            "alt": 2489
                          },
                          "children": []
                        }
                      ],
                      "commander": {
                        "id": "cmd214",
                        "name": "Cmd. Detonate",
                        "position": {
                          "lat": 46.501162,
                          "lon": 8.083902,
                          "alt": 2516
                        }
                      }
                    }
                  ],
                  "commander": {
                    "id": "cmd216",
                    "name": "Cmd. Exarch",
                    "position": {
                      "lat": 46.500534,
                      "lon": 8.085586,
                      "alt": 2529
                    }
                  },
                  "staff": [
                    {
                      "id": "staff218",
                      "name": "Stf. Flare",
                      "position": {
                        "lat": 46.500521,
                        "lon": 8.085714,
                        "alt": 2529
                      }
                    },
                    {
                      "id": "staff219",
                      "name": "Stf. Gale",
                      "position": {
                        "lat": 46.500589,
                        "lon": 8.085729,
                        "alt": 2529
                      }
                    }
                  ]
                },
                {
                  "id": "pl260",
                  "name": "13 Plt",
                  "type": "platoon",
                  "children": [
                    {
                      "id": "sq232",
                      "name": "16 Sqd",
                      "type": "squad",
                      "children": [
                        {
                          "id": "ind220",
                          "name": "Hoplite",
                          "type": "individual",
                          "position": {
                            "lat": 46.501909,
                            "lon": 8.082989,
                            "alt": 2544
                          },
                          "children": []
                        },
                        {
                          "id": "ind221",
                          "name": "Invictus",
                          "type": "individual",
                          "position": {
                            "lat": 46.501986,
                            "lon": 8.082853,
                            "alt": 2529
                          },
                          "children": []
                        },
                        {
                          "id": "ind222",
                          "name": "Jolt",
                          "type": "individual",
                          "position": {
                            "lat": 46.501909,
                            "lon": 8.082728,
                            "alt": 2482
                          },
                          "children": []
                        },
                        {
                          "id": "ind223",
                          "name": "Viper",
                          "type": "individual",
                          "position": {
                            "lat": 46.501961,
                            "lon": 8.082594,
                            "alt": 2483
                          },
                          "children": []
                        },
                        {
                          "id": "ind224",
                          "name": "Falcon",
                          "type": "individual",
                          "position": {
                            "lat": 46.502036,
                            "lon": 8.082457,
                            "alt": 2468
                          },
                          "children": []
                        },
                        {
                          "id": "ind225",
                          "name": "Raptor",
                          "type": "individual",
                          "position": {
                            "lat": 46.502018,
                            "lon": 8.082328,
                            "alt": 2452
                          },
                          "children": []
                        },
                        {
                          "id": "ind226",
                          "name": "Ghost",
                          "type": "individual",
                          "position": {
                            "lat": 46.502053,
                            "lon": 8.082195,
                            "alt": 2541
                          },
                          "children": []
                        },
                        {
                          "id": "ind227",
                          "name": "Shadow",
                          "type": "individual",
                          "position": {
                            "lat": 46.502069,
                            "lon": 8.082063,
                            "alt": 2531
                          },
                          "children": []
                        },
                        {
                          "id": "ind228",
                          "name": "Phoenix",
                          "type": "individual",
                          "position": {
                            "lat": 46.502048,
                            "lon": 8.081935,
                            "alt": 2497
                          },
                          "children": []
                        },
                        {
                          "id": "ind229",
                          "name": "Thunder",
                          "type": "individual",
                          "position": {
                            "lat": 46.501893,
                            "lon": 8.081816,
                            "alt": 2480
                          },
                          "children": []
                        },
                        {
                          "id": "ind230",
                          "name": "Eagle",
                          "type": "individual",
                          "position": {
                            "lat": 46.501947,
                            "lon": 8.081681,
                            "alt": 2520
                          },
                          "children": []
                        }
                      ],
                      "commander": {
                        "id": "cmd231",
                        "name": "Cmd. Wolf",
                        "position": {
                          "lat": 46.500951,
                          "lon": 8.08241,
                          "alt": 2459
                        }
                      }
                    },
                    {
                      "id": "sq245",
                      "name": "17 Sqd",
                      "type": "squad",
                      "children": [
                        {
                          "id": "ind233",
                          "name": "Cobra",
                          "type": "individual",
                          "position": {
                            "lat": 46.501677,
                            "lon": 8.081576,
                            "alt": 2494
                          },
                          "children": []
                        },
                        {
                          "id": "ind234",
                          "name": "Frost",
                          "type": "individual",
                          "position": {
                            "lat": 46.501629,
                            "lon": 8.081445,
                            "alt": 2484
                          },
                          "children": []
                        },
                        {
                          "id": "ind235",
                          "name": "Delta",
                          "type": "individual",
                          "position": {
                            "lat": 46.501667,
                            "lon": 8.081315,
                            "alt": 2456
                          },
                          "children": []
                        },
                        {
                          "id": "ind236",
                          "name": "Romeo",
                          "type": "individual",
                          "position": {
                            "lat": 46.501795,
                            "lon": 8.081186,
                            "alt": 2505
                          },
                          "children": []
                        },
                        {
                          "id": "ind237",
                          "name": "Ember",
                          "type": "individual",
                          "position": {
                            "lat": 46.501755,
                            "lon": 8.081056,
                            "alt": 2449
                          },
                          "children": []
                        },
                        {
                          "id": "ind238",
                          "name": "Marshal",
                          "type": "individual",
                          "position": {
                            "lat": 46.501671,
                            "lon": 8.080924,
                            "alt": 2517
                          },
                          "children": []
                        },
                        {
                          "id": "ind239",
                          "name": "Nitro",
                          "type": "individual",
                          "position": {
                            "lat": 46.501799,
                            "lon": 8.080795,
                            "alt": 2538
                          },
                          "children": []
                        },
                        {
                          "id": "ind240",
                          "name": "Onyx",
                          "type": "individual",
                          "position": {
                            "lat": 46.501698,
                            "lon": 8.080664,
                            "alt": 2527
                          },
                          "children": []
                        },
                        {
                          "id": "ind241",
                          "name": "Panther",
                          "type": "individual",
                          "position": {
                            "lat": 46.501729,
                            "lon": 8.080534,
                            "alt": 2508
                          },
                          "children": []
                        },
                        {
                          "id": "ind242",
                          "name": "Bolt",
                          "type": "individual",
                          "position": {
                            "lat": 46.501672,
                            "lon": 8.080403,
                            "alt": 2521
                          },
                          "children": []
                        },
                        {
                          "id": "ind243",
                          "name": "Kraken",
                          "type": "individual",
                          "position": {
                            "lat": 46.50179,
                            "lon": 8.080274,
                            "alt": 2496
                          },
                          "children": []
                        }
                      ],
                      "commander": {
                        "id": "cmd244",
                        "name": "Cmd. Trident",
                        "position": {
                          "lat": 46.501057,
                          "lon": 8.080919,
                          "alt": 2516
                        }
                      }
                    },
                    {
                      "id": "sq258",
                      "name": "18 Sqd",
                      "type": "squad",
                      "children": [
                        {
                          "id": "ind246",
                          "name": "Forge",
                          "type": "individual",
                          "position": {
                            "lat": 46.501492,
                            "lon": 8.080124,
                            "alt": 2529
                          },
                          "children": []
                        },
                        {
                          "id": "ind247",
                          "name": "Interceptor",
                          "type": "individual",
                          "position": {
                            "lat": 46.501369,
                            "lon": 8.079984,
                            "alt": 2537
                          },
                          "children": []
                        },
                        {
                          "id": "ind248",
                          "name": "Jackal",
                          "type": "individual",
                          "position": {
                            "lat": 46.501584,
                            "lon": 8.079871,
                            "alt": 2527
                          },
                          "children": []
                        },
                        {
                          "id": "ind249",
                          "name": "Longbow",
                          "type": "individual",
                          "position": {
                            "lat": 46.501537,
                            "lon": 8.079736,
                            "alt": 2534
                          },
                          "children": []
                        },
                        {
                          "id": "ind250",
                          "name": "Mongoose",
                          "type": "individual",
                          "position": {
                            "lat": 46.501469,
                            "lon": 8.0796,
                            "alt": 2517
                          },
                          "children": []
                        },
                        {
                          "id": "ind251",
                          "name": "Nighthawk",
                          "type": "individual",
                          "position": {
                            "lat": 46.501432,
                            "lon": 8.079467,
                            "alt": 2543
                          },
                          "children": []
                        },
                        {
                          "id": "ind252",
                          "name": "Papa",
                          "type": "individual",
                          "position": {
                            "lat": 46.50159,
                            "lon": 8.079349,
                            "alt": 2509
                          },
                          "children": []
                        },