{
  "id": "bde3641",
  "name": "1 Bde",
  "type": "brigade",
  "children": [
    {
      "id": "rgt1211",
      "name": "1 Rgt",
      "type": "regiment",
      "children": [
        {
          "id": "bn401",
          "name": "1 Bn",
          "type": "battalion",
          "children": [
            {
              "id": "co131",
              "name": "A Co",
              "type": "company",
              "children": [
                {
                  "id": "pl41",
                  "name": "1 Plt",
                  "type": "platoon",
                  "children": [
                    {
                      "id": "sq13",
                      "name": "1 Sqd",
                      "type": "squad",
                      "children": [
                        {
                          "id": "ind1",
                          "name": "Viper",
                          "type": "individual",
                          "position": {
                            "lat": 46.506397,
                            "lon": 8.103194,
                            "alt": 2486
                          },
                          "children": []
                        },
                        {
                          "id": "ind2",
                          "name": "Falcon",
                          "type": "individual",
                          "position": {
                            "lat": 46.506343,
                            "lon": 8.103032,
                            "alt": 2574
                          },
                          "children": []
                        },
                        {
                          "id": "ind3",
                          "name": "Raptor",
                          "type": "individual",
                          "position": {
                            "lat": 46.506211,
                            "lon": 8.103002,
                            "alt": 2480
                          },
                          "children": []
                        },
                        {
                          "id": "ind4",
                          "name": "Ghost",
                          "type": "individual",
                          "position": {
                            "lat": 46.506074,
                            "lon": 8.10298,
                            "alt": 2476
                          },
                          "children": []
                        },
                        {
                          "id": "ind5",
                          "name": "Shadow",
                          "type": "individual",
                          "position": {
                            "lat": 46.505991,
                            "lon": 8.102867,
                            "alt": 2494
                          },
                          "children": []
                        },
                        {
                          "id": "ind6",
                          "name": "Phoenix",
                          "type": "individual",
                          "position": {
                            "lat": 46.505919,
                            "lon": 8.102736,
                            "alt": 2500
                          },
                          "children": []
                        },
                        {
                          "id": "ind7",
                          "name": "Thunder",
                          "type": "individual",
                          "position": {
                            "lat": 46.505923,
                            "lon": 8.102479,
                            "alt": 2569
                          },
                          "children": []
                        },
                        {
                          "id": "ind8",
                          "name": "Eagle",
                          "type": "individual",
                          "position": {
                            "lat": 46.505859,
                            "lon": 8.102333,
                            "alt": 2560
                          },
                          "children": []
                        },
                        {
                          "id": "ind9",
                          "name": "Wolf",
                          "type": "individual",
                          "position": {
                            "lat": 46.505738,
                            "lon": 8.102285,
                            "alt": 2551
                          },
                          "children": []
                        },
                        {
                          "id": "ind10",
                          "name": "Cobra",
                          "type": "individual",
                          "position": {
                            "lat": 46.505647,
                            "lon": 8.102187,
                            "alt": 2522
                          },
                          "children": []
                        },
                        {
                          "id": "ind11",
                          "name": "Frost",
                          "type": "individual",
                          "position": {
                            "lat": 46.505569,
                            "lon": 8.102066,
                            "alt": 2513
                          },
                          "children": []
                        }
                      ],
                      "commander": {
                        "id": "cmd12",
                        "name": "Cmd. Delta",
                        "position": {
                          "lat": 46.505376,
                          "lon": 8.10365,
                          "alt": 2499
                        }
                      }
                    },
                    {
                      "id": "sq26",
                      "name": "2 Sqd",
                      "type": "squad",
                      "children": [
                        {
                          "id": "ind14",
                          "name": "Romeo",
                          "type": "individual",
                          "position": {
                            "lat": 46.505018,
                            "lon": 8.102519,
                            "alt": 2502
                          },
                          "children": []
                        },
                        {
                          "id": "ind15",
                          "name": "Ember",
                          "type": "individual",
                          "position": {
                            "lat": 46.504832,
                            "lon": 8.102478,
                            "alt": 2533
                          },
                          "children": []
                        },
                        {
                          "id": "ind16",
                          "name": "Marshal",
                          "type": "individual",
                          "position": {
                            "lat": 46.504798,
                            "lon": 8.102318,
                            "alt": 2502
                          },
                          "children": []
                        },
                        {
                          "id": "ind17",
                          "name": "Nitro",
                          "type": "individual",
                          "position": {
                            "lat": 46.504935,
                            "lon": 8.102022,
                            "alt": 2561
                          },
                          "children": []
                        },
                        {
                          "id": "ind18",
                          "name": "Onyx",
                          "type": "individual",
                          "position": {
                            "lat": 46.504703,
                            "lon": 8.102018,
                            "alt": 2548
                          },
                          "children": []
                        },
                        {
                          "id": "ind19",
                          "name": "Panther",
                          "type": "individual",
                          "position": {
                            "lat": 46.504763,
                            "lon": 8.101783,
                            "alt": 2527
                          },
                          "children": []
                        },
                        {
                          "id": "ind20",
                          "name": "Bolt",
                          "type": "individual",
                          "position": {
                            "lat": 46.504779,
                            "lon": 8.101583,
                            "alt": 2521
                          },
                          "children": []
                        },
                        {
                          "id": "ind21",
                          "name": "Kraken",
                          "type": "individual",
                          "position": {
                            "lat": 46.504583,
                            "lon": 8.10155,
                            "alt": 2495
                          },
                          "children": []
                        },
                        {
                          "id": "ind22",
                          "name": "Trident",
                          "type": "individual",
                          "position": {
                            "lat": 46.504588,
                            "lon": 8.101358,
                            "alt": 2520
                          },
                          "children": []
                        },
                        {
                          "id": "ind23",
                          "name": "Forge",
                          "type": "individual",
                          "position": {
                            "lat": 46.504458,
                            "lon": 8.101273,
                            "alt": 2565
                          },
                          "children": []
                        },
                        {
                          "id": "ind24",
                          "name": "Interceptor",
                          "type": "individual",
                          "position": {
                            "lat": 46.504386,
                            "lon": 8.101143,
                            "alt": 2501
                          },
                          "children": []
                        }
                      ],
                      "commander": {
                        "id": "cmd25",
                        "name": "Cmd. Jackal",
                        "position": {
                          "lat": 46.50416,
                          "lon": 8.10226,
                          "alt": 2570
                        }
                      }
                    },
                    {
                      "id": "sq39",
                      "name": "3 Sqd",
                      "type": "squad",
                      "children": [
                        {
                          "id": "ind27",
                          "name": "Longbow",
                          "type": "individual",
                          "position": {
                            "lat": 46.504264,
                            "lon": 8.100783,
                            "alt": 2487
                          },
                          "children": []
                        },
                        {
                          "id": "ind28",
                          "name": "Mongoose",
                          "type": "individual",
                          "position": {
                            "lat": 46.504277,
                            "lon": 8.100616,
                            "alt": 2499
                          },
                          "children": []
                        },
                        {
                          "id": "ind29",
                          "name": "Nighthawk",
                          "type": "individual",
                          "position": {
                            "lat": 46.504463,
                            "lon": 8.100429,
                            "alt": 2510
                          },
                          "children": []
                        },
                        {
                          "id": "ind30",
                          "name": "Papa",
                          "type": "individual",
                          "position": {
                            "lat": 46.504434,
                            "lon": 8.100267,
                            "alt": 2540
                          },
                          "children": []
                        },
                        {
                          "id": "ind31",
                          "name": "Quebec",
                          "type": "individual",
                          "position": {
                            "lat": 46.504295,
                            "lon": 8.100118,
                            "alt": 2477
                          },
                          "children": []
                        },
                        {
                          "id": "ind32",
                          "name": "Sierra",
                          "type": "individual",
                          "position": {
                            "lat": 46.504338,
                            "lon": 8.099947,
                            "alt": 2539
                          },
                          "children": []
                        },
                        {
                          "id": "ind33",
                          "name": "Whiskey",
                          "type": "individual",
                          "position": {
                            "lat": 46.504398,
                            "lon": 8.099775,
                            "alt": 2486
                          },
                          "children": []
                        },
                        {
                          "id": "ind34",
                          "name": "Flint",
                          "type": "individual",
                          "position": {
                            "lat": 46.504201,
                            "lon": 8.099633,
                            "alt": 2480
                          },
                          "children": []
                        },
                        {
                          "id": "ind35",
                          "name": "Warden",
                          "type": "individual",
                          "position": {
                            "lat": 46.504414,
                            "lon": 8.099442,
                            "alt": 2496
                          },
                          "children": []
                        },
                        {
                          "id": "ind36",
                          "name": "Inferno",
                          "type": "individual",
                          "position": {
                            "lat": 46.50435,
                            "lon": 8.099284,
                            "alt": 2540
                          },
                          "children": []
                        },
                        {
                          "id": "ind37",
                          "name": "Razor",
                          "type": "individual",
                          "position": {
                            "lat": 46.504214,
                            "lon": 8.099135,
                            "alt": 2543
                          },
                          "children": []
                        }
                      ],
                      "commander": {
                        "id": "cmd38",
                        "name": "Cmd. Sentinel",
                        "position": {
                          "lat": 46.503762,
                          "lon": 8.100016,
                          "alt": 2509
                        }
                      }
                    }
                  ],
                  "commander": {
                    "id": "cmd40",
                    "name": "Cmd. Vanguard",
                    "position": {
                      "lat": 46.503863,
                      "lon": 8.102495,
                      "alt": 2580
                    }
                  },
                  "staff": [
                    {
                      "id": "staff42",
                      "name": "Stf. Gladius",
                      "position": {
                        "lat": 46.503767,
                        "lon": 8.102691,
                        "alt": 2580
                      }
                    },
                    {
                      "id": "staff43",
                      "name": "Stf. Outlaw",
                      "position": {
                        "lat": 46.503919,
                        "lon": 8.102402,
                        "alt": 2580
                      }
                    }
                  ]
                },
                {
                  "id": "pl84",
                  "name": "2 Plt",
                  "type": "platoon",
                  "children": [
                    {
                      "id": "sq56",
                      "name": "4 Sqd",
                      "type": "squad",
                      "children": [
                        {
                          "id": "ind44",
                          "name": "Arsenal",
                          "type": "individual",
                          "position": {
                            "lat": 46.504197,
                            "lon": 8.098836,
                            "alt": 2569
                          },
                          "children": []
                        },
                        {
                          "id": "ind45",
                          "name": "Icarus",
                          "type": "individual",
                          "position": {
                            "lat": 46.504384,
                            "lon": 8.098718,
                            "alt": 2552
                          },
                          "children": []
                        },
                        {
                          "id": "ind46",
                          "name": "Nemesis",
                          "type": "individual",
                          "position": {
                            "lat": 46.50447,
                            "lon": 8.098573,
                            "alt": 2519
                          },
                          "children": []
                        },
                        {
                          "id": "ind47",
                          "name": "Corsair",
                          "type": "individual",
                          "position": {
                            "lat": 46.504304,
                            "lon": 8.098362,
                            "alt": 2524
                          },
                          "children": []
                        },
                        {
                          "id": "ind48",
                          "name": "Kestrel",
                          "type": "individual",
                          "position": {
                            "lat": 46.504515,
                            "lon": 8.098249,
                            "alt": 2528
                          },
                          "children": []
                        },
                        {
                          "id": "ind49",
                          "name": "Scorpion",
                          "type": "individual",
                          "position": {
                            "lat": 46.504391,
                            "lon": 8.09805,
                            "alt": 2514
                          },
                          "children": []
                        },
                        {
                          "id": "ind50",
                          "name": "Ace",
                          "type": "individual",
                          "position": {
                            "lat": 46.50447,
                            "lon": 8.097903,
                            "alt": 2468
                          },
                          "children": []
                        },
                        {
                          "id": "ind51",
                          "name": "Revenant",
                          "type": "individual",
                          "position": {
                            "lat": 46.504402,
                            "lon": 8.097718,
                            "alt": 2484
                          },
                          "children": []
                        },
                        {
                          "id": "ind52",
                          "name": "Praetor",
                          "type": "individual",
                          "position": {
                            "lat": 46.504422,
                            "lon": 8.097555,
                            "alt": 2481
                          },
                          "children": []
                        },
                        {
                          "id": "ind53",
                          "name": "Centurion",
                          "type": "individual",
                          "position": {
                            "lat": 46.504483,
                            "lon": 8.097404,
                            "alt": 2476
                          },
                          "children": []
                        },
                        {
                          "id": "ind54",
                          "name": "Condor",
                          "type": "individual",
                          "position": {
                            "lat": 46.504441,
                            "lon": 8.097225,
                            "alt": 2537
                          },
                          "children": []
                        }
                      ],
                      "commander": {
                        "id": "cmd55",
                        "name": "Cmd. Harrier",
                        "position": {
                          "lat": 46.503868,
                          "lon": 8.097914,
                          "alt": 2473
                        }
                      }
                    },
                    {
                      "id": "sq69",
                      "name": "5 Sqd",
                      "type": "squad",
                      "children": [
                        {
                          "id": "ind57",
                          "name": "Monarch",
                          "type": "individual",
                          "position": {
                            "lat": 46.504984,
                            "lon": 8.097202,
                            "alt": 2484
                          },
                          "children": []
                        },
                        {
                          "id": "ind58",
                          "name": "Sovereign",
                          "type": "individual",
                          "position": {
                            "lat": 46.505086,
                            "lon": 8.097069,
                            "alt": 2539
                          },
                          "children": []
                        },
                        {
                          "id": "ind59",
                          "name": "Sledgehammer",
                          "type": "individual",
                          "position": {
                            "lat": 46.505102,
                            "lon": 8.096905,
                            "alt": 2492
                          },
                          "children": []
                        },
                        {
                          "id": "ind60",
                          "name": "Tomahawk",
                          "type": "individual",
                          "position": {
                            "lat": 46.505137,
                            "lon": 8.096748,
                            "alt": 2523
                          },
                          "children": []
                        },
                        {
                          "id": "ind61",
                          "name": "Warlock",
                          "type": "individual",
                          "position": {
                            "lat": 46.505111,
                            "lon": 8.096568,
                            "alt": 2547
                          },
                          "children": []
                        },
                        {
                          "id": "ind62",
                          "name": "Ares",
                          "type": "individual",
                          "position": {
                            "lat": 46.505186,
                            "lon": 8.096426,
                            "alt": 2505
                          },
                          "children": []
                        },
                        {
                          "id": "ind63",
                          "name": "Raptor",
                          "type": "individual",
                          "position": {
                            "lat": 46.505283,
                            "lon": 8.096292,
                            "alt": 2477
                          },
                          "children": []
                        },
                        {
                          "id": "ind64",
                          "name": "Bulldog",
                          "type": "individual",
                          "position": {
                            "lat": 46.50524,
                            "lon": 8.096106,
                            "alt": 2517
                          },
                          "children": []
                        },
                        {
                          "id": "ind65",
                          "name": "Striker",
                          "type": "individual",
                          "position": {
                            "lat": 46.50526,
                            "lon": 8.095943,
                            "alt": 2516
                          },
                          "children": []
                        },
                        {
                          "id": "ind66",
                          "name": "Overlord",
                          "type": "individual",
                          "position": {
                            "lat": 46.50544,
                            "lon": 8.09584,
                            "alt": 2540
                          },
                          "children": []
                        },
                        {
                          "id": "ind67",
                          "name": "Sabre",
                          "type": "individual",
                          "position": {
                            "lat": 46.505215,
                            "lon": 8.095586,
                            "alt": 2535
                          },
                          "children": []
                        }
                      ],
                      "commander": {
                        "id": "cmd68",
                        "name": "Cmd. Talon",
                        "position": {
                          "lat": 46.504135,
                          "lon": 8.096036,
                          "alt": 2561
                        }
                      }
                    },
                    {
                      "id": "sq82",
                      "name": "6 Sqd",
                      "type": "squad",
                      "children": [
                        {
                          "id": "ind70",
                          "name": "Bravo",
                          "type": "individual",
                          "position": {
                            "lat": 46.50508,
                            "lon": 8.095366,
                            "alt": 2516
                          },
                          "children": []
                        },
                        {
                          "id": "ind71",
                          "name": "Spartan",
                          "type": "individual",
                          "position": {
                            "lat": 46.505123,
                            "lon": 8.095207,
                            "alt": 2476
                          },
                          "children": []
                        },
                        {
                          "id": "ind72",
                          "name": "Titan",
                          "type": "individual",
                          "position": {
                            "lat": 46.505022,
                            "lon": 8.095026,
                            "alt": 2504
                          },
                          "children": []
                        },
                        {
                          "id": "ind73",
                          "name": "Nomad",
                          "type": "individual",
                          "position": {
                            "lat": 46.505059,
                            "lon": 8.094866,
                            "alt": 2462
                          },
                          "children": []
                        },
                        {
                          "id": "ind74",
                          "name": "Blaze",
                          "type": "individual",
                          "position": {
                            "lat": 46.505138,
                            "lon": 8.094712,
                            "alt": 2536
                          },
                          "children": []
                        },
                        {
                          "id": "ind75",
                          "name": "Hammer",
                          "type": "individual",
                          "position": {
                            "lat": 46.505269,
                            "lon": 8.094566,
                            "alt": 2516
                          },
                          "children": []
                        },
                        {
                          "id": "ind76",
                          "name": "Iron",
                          "type": "individual",
                          "position": {
                            "lat": 46.505093,
                            "lon": 8.094374,
                            "alt": 2534
                          },
                          "children": []
                        },
                        {
                          "id": "ind77",
                          "name": "Javelin",
                          "type": "individual",
                          "position": {
                            "lat": 46.505237,
                            "lon": 8.09423,
                            "alt": 2483
                          },
                          "children": []
                        },
                        {
                          "id": "ind78",
                          "name": "Knight",
                          "type": "individual",
                          "position": {
                            "lat": 46.505093,
                            "lon": 8.094042,
                            "alt": 2468
                          },
                          "children": []
                        },
                        {
                          "id": "ind79",
                          "name": "Lancer",
                          "type": "individual",
                          "position": {
                            "lat": 46.505212,
                            "lon": 8.093895,
                            "alt": 2518
                          },
                          "children": []
                        },
                        {
                          "id": "ind80",
                          "name": "Storm",
                          "type": "individual",
                          "position": {
                            "lat": 46.505155,
                            "lon": 8.09372,
                            "alt": 2516
                          },
                          "children": []
                        }
                      ],
                      "commander": {
                        "id": "cmd81",
                        "name": "Cmd. Tempest",
                        "position": {
                          "lat": 46.504702,
                          "lon": 8.09448,
                          "alt": 2489
                        }
                      }
                    }
                  ],
                  "commander": {
                    "id": "cmd83",
                    "name": "Cmd. Valkyrie",
                    "position": {
                      "lat": 46.503987,
                      "lon": 8.095982,
                      "alt": 2555
                    }
                  },
                  "staff": [
                    {
                      "id": "staff85",
                      "name": "Stf. Apex",
                      "position": {
                        "lat": 46.504047,
                        "lon": 8.096054,
                        "alt": 2555
                      }
                    },
                    {
                      "id": "staff86",
                      "name": "Stf. Fury",
                      "position": {
                        "lat": 46.503932,
                        "lon": 8.096162,
                        "alt": 2555
                      }
                    }
                  ]
                },
                {
                  "id": "pl127",
                  "name": "3 Plt",
                  "type": "platoon",
                  "children": [
                    {
                      "id": "sq99",
                      "name": "7 Sqd",
                      "type": "squad",
                      "children": [
                        {
                          "id": "ind87",
                          "name": "Grizzly",
                          "type": "individual",
                          "position": {
                            "lat": 46.505256,
                            "lon": 8.093467,
                            "alt": 2487
                          },
                          "children": []
                        },
                        {
                          "id": "ind88",
                          "name": "Hornet",
                          "type": "individual",
                          "position": {
                            "lat": 46.505287,
                            "lon": 8.09323,
                            "alt": 2469
                          },
                          "children": []
                        },
                        {
                          "id": "ind89",
                          "name": "Inferno",
                          "type": "individual",
                          "position": {
                            "lat": 46.505137,
                            "lon": 8.093186,
                            "alt": 2531
                          },
                          "children": []
                        },
                        {
                          "id": "ind90",
                          "name": "Neptune",
                          "type": "individual",
                          "position": {
                            "lat": 46.505041,
                            "lon": 8.093084,
                            "alt": 2463
                          },
                          "children": []
                        },
                        {
                          "id": "ind91",
                          "name": "Odin",
                          "type": "individual",
                          "position": {
                            "lat": 46.504876,
                            "lon": 8.093056,
                            "alt": 2495
                          },
                          "children": []
                        },
                        {
                          "id": "ind92",
                          "name": "Patriot",
                          "type": "individual",
                          "position": {
                            "lat": 46.504819,
                            "lon": 8.092911,
                            "alt": 2527
                          },
                          "children": []
                        },
                        {
                          "id": "ind93",
                          "name": "Cipher",
                          "type": "individual",
                          "position": {
                            "lat": 46.504865,
                            "lon": 8.092659,
                            "alt": 2475
                          },
                          "children": []
                        },
                        {
                          "id": "ind94",
                          "name": "Drake",
                          "type": "individual",
                          "position": {
                            "lat": 46.504759,
                            "lon": 8.092568,
                            "alt": 2494
                          },
                          "children": []
                        },
                        {
                          "id": "ind95",
                          "name": "Legion",
                          "type": "individual",
                          "position": {
                            "lat": 46.504612,
                            "lon": 8.092519,
                            "alt": 2456
                          },
                          "children": []
                        },
                        {
                          "id": "ind96",
                          "name": "Mirage",
                          "type": "individual",
                          "position": {
                            "lat": 46.504663,
                            "lon": 8.09226,
                            "alt": 2469
                          },
                          "children": []
                        },
                        {
                          "id": "ind97",
                          "name": "Spectre",
                          "type": "individual",
                          "position": {
                            "lat": 46.504661,
                            "lon": 8.092058,
                            "alt": 2454
                          },
                          "children": []
                        }
                      ],
                      "commander": {
                        "id": "cmd98",
                        "name": "Cmd. Torque",
                        "position": {
                          "lat": 46.504202,
                          "lon": 8.09357,
                          "alt": 2542
                        }
                      }
                    },
                    {
                      "id": "sq112",
                      "name": "8 Sqd",
                      "type": "squad",
                      "children": [
                        {
                          "id": "ind100",
                          "name": "Dynamo",
                          "type": "individual",
                          "position": {
                            "lat": 46.504275,
                            "lon": 8.092608,
                            "alt": 2463
                          },
                          "children": []
                        },
                        {
                          "id": "ind101",
                          "name": "Eclipse",
                          "type": "individual",
                          "position": {
                            "lat": 46.504226,
                            "lon": 8.092312,
                            "alt": 2465
                          },
                          "children": []
                        },
                        {
                          "id": "ind102",
                          "name": "Goliath",
                          "type": "individual",
                          "position": {
                            "lat": 46.504121,
                            "lon": 8.09225,
                            "alt": 2462
                          },
                          "children": []
                        },
                        {
                          "id": "ind103",
                          "name": "Hydra",
                          "type": "individual",
                          "position": {
                            "lat": 46.503985,
                            "lon": 8.092313,
                            "alt": 2483
                          },
                          "children": []
                        },
                        {
                          "id": "ind104",
                          "name": "Leopard",
                          "type": "individual",
                          "position": {
                            "lat": 46.503849,
                            "lon": 8.09238,
                            "alt": 2471
                          },
                          "children": []
                        },
                        {
                          "id": "ind105",
                          "name": "Mustang",
                          "type": "individual",
                          "position": {
                            "lat": 46.503735,
                            "lon": 8.092355,
                            "alt": 2520
                          },
                          "children": []
                        },
                        {
                          "id": "ind106",
                          "name": "Nova",
                          "type": "individual",
                          "position": {
                            "lat": 46.503629,
                            "lon": 8.0923,
                            "alt": 2536
                          },
                          "children": []
                        },
                        {
                          "id": "ind107",
                          "name": "Orion",
                          "type": "individual",
                          "position": {
                            "lat": 46.503577,
                            "lon": 8.092013,
                            "alt": 2504
                          },
                          "children": []
                        },
                        {
                          "id": "ind108",
                          "name": "Phantom",
                          "type": "individual",
                          "position": {
                            "lat": 46.503454,
                            "lon": 8.092028,
                            "alt": 2476
                          },
                          "children": []
                        },
                        {
                          "id": "ind109",
                          "name": "Viking",
                          "type": "individual",
                          "position": {
                            "lat": 46.503295,
                            "lon": 8.092189,
                            "alt": 2468
                          },
                          "children": []
                        },
                        {
                          "id": "ind110",
                          "name": "Wolverine",
                          "type": "individual",
                          "position": {
                            "lat": 46.50324,
                            "lon": 8.091917,
                            "alt": 2528
                          },
                          "children": []
                        }
                      ],
                      "commander": {
                        "id": "cmd111",
                        "name": "Cmd. Zenith",
                        "position": {
                          "lat": 46.503608,
                          "lon": 8.092884,
                          "alt": 2524
                        }
                      }
                    },
                    {
                      "id": "sq125",
                      "name": "9 Sqd",
                      "type": "squad",
                      "children": [
                        {
                          "id": "ind113",
                          "name": "Atlas",
                          "type": "individual",
                          "position": {
                            "lat": 46.503141,
                            "lon": 8.091877,
                            "alt": 2483
                          },
                          "children": []
                        },
                        {
                          "id": "ind114",
                          "name": "Bandit",
                          "type": "individual",
                          "position": {
                            "lat": 46.503007,
                            "lon": 8.091976,
                            "alt": 2489
                          },
                          "children": []
                        },
                        {
                          "id": "ind115",
                          "name": "Dagger",
                          "type": "individual",
                          "position": {
                            "lat": 46.502899,
                            "lon": 8.091927,
                            "alt": 2532
                          },
                          "children": []
                        },
                        {
                          "id": "ind116",
                          "name": "Enforcer",
                          "type": "individual",
                          "position": {
                            "lat": 46.502839,
                            "lon": 8.091595,
                            "alt": 2469
                          },
                          "children": []
                        },
                        {
                          "id": "ind117",
                          "name": "Foxhound",
                          "type": "individual",
                          "position": {
                            "lat": 46.502719,
                            "lon": 8.091612,
                            "alt": 2484
                          },
                          "children": []
                        },
                        {
                          "id": "ind118",
                          "name": "Gunner",
                          "type": "individual",
                          "position": {
                            "lat": 46.502605,
                            "lon": 8.091597,
                            "alt": 2536
                          },
                          "children": []
                        },
                        {
                          "id": "ind119",
                          "name": "Hercules",
                          "type": "individual",
                          "position": {
                            "lat": 46.502493,
                            "lon": 8.09157,
                            "alt": 2527
                          },
                          "children": []
                        },
                        {
                          "id": "ind120",
                          "name": "Juggernaut",
                          "type": "individual",
                          "position": {
                            "lat": 46.502342,
                            "lon": 8.091768,
                            "alt": 2534
                          },
                          "children": []
                        },
                        {
                          "id": "ind121",
                          "name": "Kodiak",
                          "type": "individual",
                          "position": {
                            "lat": 46.502265,
                            "lon": 8.091535,
                            "alt": 2535
                          },
                          "children": []
                        },
                        {
                          "id": "ind122",
                          "name": "Lynx",
                          "type": "individual",
                          "position": {
                            "lat": 46.502129,
                            "lon": 8.091647,
                            "alt": 2505
                          },
                          "children": []
                        },
                        {
                          "id": "ind123",
                          "name": "Mantis",
                          "type": "individual",
                          "position": {
                            "lat": 46.502016,
                            "lon": 8.091628,
                            "alt": 2504
                          },
                          "children": []
                        }
                      ],
                      "commander": {
                        "id": "cmd124",
                        "name": "Cmd. Bishop",
                        "position": {
                          "lat": 46.50246,
                          "lon": 8.092449,
                          "alt": 2465
                        }
                      }
                    }
                  ],
                  "commander": {
                    "id": "cmd126",
                    "name": "Cmd. Castle",
                    "position": {
                      "lat": 46.503513,
                      "lon": 8.093283,
                      "alt": 2530
                    }
                  },
                  "staff": [
                    {
                      "id": "staff128",
                      "name": "Stf. Draco",
                      "position": {
                        "lat": 46.503669,
                        "lon": 8.093204,
                        "alt": 2530
                      }
                    },
                    {
                      "id": "staff129",
                      "name": "Stf. Enigma",
                      "position": {
                        "lat": 46.503548,
                        "lon": 8.093448,
                        "alt": 2530
                      }
                    }
                  ]
                }
              ],
              "commander": {
                "id": "cmd130",
                "name": "Cmd. Firestorm",
                "position": {
                  "lat": 46.503354,
                  "lon": 8.095747,
                  "alt": 2529
                }
              },
              "staff": [
                {
                  "id": "staff132",
                  "name": "Stf. Quicksilver",
                  "position": {
                    "lat": 46.503264,
                    "lon": 8.095921,
                    "alt": 2529
                  }
                },
                {
                  "id": "staff133",
                  "name": "Stf. Ronin",
                  "position": {
                    "lat": 46.503369,
                    "lon": 8.095909,
                    "alt": 2529
                  }
                }
              ]
            },
            {
              "id": "co264",
              "name": "B Co",
              "type": "company",
              "children": [
                {
                  "id": "pl174",
                  "name": "11 Plt",
                  "type": "platoon",
                  "children": [
                    {
                      "id": "sq146",
                      "name": "10 Sqd",
                      "type": "squad",
                      "children": [
                        {
                          "id": "ind134",
                          "name": "Umbra",
                          "type": "individual",
                          "position": {
                            "lat": 46.501876,
                            "lon": 8.091465,
                            "alt": 2493
                          },
                          "children": []
                        },
                        {
                          "id": "ind135",
                          "name": "Vertex",
                          "type": "individual",
                          "position": {
                            "lat": 46.50183,
                            "lon": 8.09119,
                            "alt": 2507
                          },
                          "children": []
                        },
                        {
                          "id": "ind136",
                          "name": "Wildfire",
                          "type": "individual",
                          "position": {
                            "lat": 46.501696,
                            "lon": 8.091232,
                            "alt": 2490
                          },
                          "children": []
                        },
                        {
                          "id": "ind137",
                          "name": "Xenon",
                          "type": "individual",
                          "position": {
                            "lat": 46.501581,
                            "lon": 8.091205,
                            "alt": 2467
                          },
                          "children": []
                        },
                        {
                          "id": "ind138",
                          "name": "Yeti",
                          "type": "individual",
                          "position": {
                            "lat": 46.501492,
                            "lon": 8.091088,
                            "alt": 2508
                          },
                          "children": []
                        },
                        {
                          "id": "ind139",
                          "name": "Breaker",
                          "type": "individual",
                          "position": {
                            "lat": 46.501363,
                            "lon": 8.09111,
                            "alt": 2500
                          },
                          "children": []
                        },
                        {
                          "id": "ind140",
                          "name": "Dominator",
                          "type": "individual",
                          "position": {
                            "lat": 46.501266,
                            "lon": 8.09102,
                            "alt": 2540
                          },
                          "children": []
                        },
                        {
                          "id": "ind141",
                          "name": "Impulse",
                          "type": "individual",
                          "position": {
                            "lat": 46.501162,
                            "lon": 8.090955,
                            "alt": 2519
                          },
                          "children": []
                        },
                        {
                          "id": "ind142",
                          "name": "Jester",
                          "type": "individual",
                          "position": {
                            "lat": 46.501046,
                            "lon": 8.090933,
                            "alt": 2527
                          },
                          "children": []
                        },
                        {
                          "id": "ind143",
                          "name": "Rogue",
                          "type": "individual",
                          "position": {
                            "lat": 46.500947,
                            "lon": 8.090848,
                            "alt": 2477
                          },
                          "children": []
                        },
                        {
                          "id": "ind144",
                          "name": "Maverick",
                          "type": "individual",
                          "position": {
                            "lat": 46.500871,
                            "lon": 8.090683,
                            "alt": 2517
                          },
                          "children": []
                        }
                      ],
                      "commander": {
                        "id": "cmd145",
                        "name": "Cmd. Echo",
                        "position": {
                          "lat": 46.501194,
                          "lon": 8.091715,
                          "alt": 2476
                        }
                      }
                    },
                    {
                      "id": "sq159",
                      "name": "11 Sqd",
                      "type": "squad",
                      "children": [
                        {
                          "id": "ind147",
                          "name": "Foxtrot",
                          "type": "individual",
                          "position": {
                            "lat": 46.500787,
                            "lon": 8.090416,
                            "alt": 2530
                          },
                          "children": []
                        },
                        {
                          "id": "ind148",
                          "name": "Kilo",
                          "type": "individual",
                          "position": {
                            "lat": 46.500708,
                            "lon": 8.090288,
                            "alt": 2517
                          },
                          "children": []
                        },
                        {
                          "id": "ind149",
                          "name": "Lima",
                          "type": "individual",
                          "position": {
                            "lat": 46.500669,
                            "lon": 8.090133,
                            "alt": 2530
                          },
                          "children": []
                        },
                        {
                          "id": "ind150",
                          "name": "Oscar",
                          "type": "individual",
                          "position": {
                            "lat": 46.500631,
                            "lon": 8.089976,
                            "alt": 2556
                          },
                          "children": []
                        },
                        {
                          "id": "ind151",
                          "name": "Tango",
                          "type": "individual",
                          "position": {
                            "lat": 46.500483,
                            "lon": 8.089897,
                            "alt": 2484
                          },
                          "children": []
                        },
                        {
                          "id": "ind152",
                          "name": "Zulu",
                          "type": "individual",
                          "position": {
                            "lat": 46.500442,
                            "lon": 8.089743,
                            "alt": 2500
                          },
                          "children": []
                        },
                        {
                          "id": "ind153",
                          "name": "Archer",
                          "type": "individual",
                          "position": {
                            "lat": 46.500434,
                            "lon": 8.089566,
                            "alt": 2507
                          },
                          "children": []
                        },
                        {
                          "id": "ind154",
                          "name": "Hawk",
                          "type": "individual",
                          "position": {
                            "lat": 46.500452,
                            "lon": 8.08937,
                            "alt": 2484
                          },
                          "children": []
                        },
                        {
                          "id": "ind155",
                          "name": "Reaper",
                          "type": "individual",
                          "position": {
                            "lat": 46.500291,
                            "lon": 8.0893,
                            "alt": 2498
                          },
                          "children": []
                        },
                        {
                          "id": "ind156",
                          "name": "Phalanx",
                          "type": "individual",
                          "position": {
                            "lat": 46.500222,
                            "lon": 8.089165,
                            "alt": 2539
                          },
                          "children": []
                        },
                        {
                          "id": "ind157",
                          "name": "Rampart",
                          "type": "individual",
                          "position": {
                            "lat": 46.500315,
                            "lon": 8.088917,
                            "alt": 2517
                          },
                          "children": []
                        }
                      ],
                      "commander": {
                        "id": "cmd158",
                        "name": "Cmd. Stalker",
                        "position": {
                          "lat": 46.499693,
                          "lon": 8.090268,
                          "alt": 2541
                        }
                      }
                    },
                    {
                      "id": "sq172",
                      "name": "12 Sqd",
                      "type": "squad",
                      "children": [
                        {
                          "id": "ind160",
                          "name": "Tigershark",
                          "type": "individual",
                          "position": {
                            "lat": 46.499947,
                            "lon": 8.088467,
                            "alt": 2523
                          },
                          "children": []
                        },
                        {
                          "id": "ind161",
                          "name": "Vandal",
                          "type": "individual",
                          "position": {
                            "lat": 46.500024,
                            "lon": 8.088332,
                            "alt": 2488
                          },
                          "children": []
                        },
                        {
                          "id": "ind162",
                          "name": "Wraith",
                          "type": "individual",
                          "position": {
                            "lat": 46.50016,
                            "lon": 8.088229,
                            "alt": 2496
                          },
                          "children": []
                        },
                        {
                          "id": "ind163",
                          "name": "Brimstone",
                          "type": "individual",
                          "position": {
                            "lat": 46.500013,
                            "lon": 8.087975,
                            "alt": 2494
                          },
                          "children": []
                        },
                        {
                          "id": "ind164",
                          "name": "Cutlass",
                          "type": "individual",
                          "position": {
                            "lat": 46.500024,
                            "lon": 8.087805,
                            "alt": 2543
                          },
                          "children": []
                        },
                        {
                          "id": "ind165",
                          "name": "Deacon",
                          "type": "individual",
                          "position": {
                            "lat": 46.500229,
                            "lon": 8.087739,
                            "alt": 2552
                          },
                          "children": []
                        },
                        {
                          "id": "ind166",
                          "name": "Falcon",
                          "type": "individual",
                          "position": {
                            "lat": 46.500298,
                            "lon": 8.0876,
                            "alt": 2469
                          },
                          "children": []
                        },
                        {
                          "id": "ind167",
                          "name": "Griffin",
                          "type": "individual",
                          "position": {
                            "lat": 46.500327,
                            "lon": 8.08744,
                            "alt": 2532
                          },
                          "children": []
                        },
                        {
                          "id": "ind168",
                          "name": "Havoc",
                          "type": "individual",
                          "position": {
                            "lat": 46.500254,
                            "lon": 8.087225,
                            "alt": 2477
                          },
                          "children": []
                        },
                        {
                          "id": "ind169",
                          "name": "Ironside",
                          "type": "individual",
                          "position": {
                            "lat": 46.500263,
                            "lon": 8.087055,
                            "alt": 2504
                          },
                          "children": []
                        },
                        {
                          "id": "ind170",
                          "name": "Jaguar",
                          "type": "individual",
                          "position": {
                            "lat": 46.500486,
                            "lon": 8.086998,
                            "alt": 2527
                          },
                          "children": []
                        }
                      ],
                      "commander": {
                        "id": "cmd171",
                        "name": "Cmd. Katana",
                        "position": {
                          "lat": 46.499881,
                          "lon": 8.087553,
                          "alt": 2545
                        }
                      }
                    }
                  ],
                  "commander": {
                    "id": "cmd173",
                    "name": "Cmd. Loki",
                    "position": {
                      "lat": 46.499499,
                      "lon": 8.090403,
                      "alt": 2555
                    }
                  },
                  "staff": [
                    {
                      "id": "staff175",
                      "name": "Stf. Magnum",
                      "position": {
                        "lat": 46.49957,
                        "lon": 8.090486,
                        "alt": 2555
                      }
                    },
                    {
                      "id": "staff176",
                      "name": "Stf. Northstar",
                      "position": {
                        "lat": 46.499526,
                        "lon": 8.090232,
                        "alt": 2555
                      }
                    }
                  ]
                },
                {
                  "id": "pl217",
                  "name": "12 Plt",
                  "type": "platoon",
                  "children": [
                    {
                      "id": "sq189",
                      "name": "13 Sqd",
                      "type": "squad",
                      "children": [
                        {
                          "id": "ind177",
                          "name": "Paladin",
                          "type": "individual",
                          "position": {
                            "lat": 46.501151,
                            "lon": 8.08729,
                            "alt": 2467
                          },
                          "children": []
                        },
                        {
                          "id": "ind178",
                          "name": "Rapier",
                          "type": "individual",
                          "position": {
                            "lat": 46.501138,
                            "lon": 8.087086,
                            "alt": 2552
                          },
                          "children": []
                        },
                        {
                          "id": "ind179",
                          "name": "Sable",
                          "type": "individual",
                          "position": {
                            "lat": 46.501198,
                            "lon": 8.086946,
                            "alt": 2496
                          },
                          "children": []
                        },
                        {
                          "id": "ind180",
                          "name": "Templar",
                          "type": "individual",
                          "position": {
                            "lat": 46.501254,
                            "lon": 8.086803,
                            "alt": 2529
                          },
                          "children": []
                        },
                        {
                          "id": "ind181",
                          "name": "Uppercut",
                          "type": "individual",
                          "position": {
                            "lat": 46.501438,
                            "lon": 8.086772,
                            "alt": 2550
                          },
                          "children": []
                        },
                        {
                          "id": "ind182",
                          "name": "Vigil",
                          "type": "individual",
                          "position": {
                            "lat": 46.501326,
                            "lon": 8.086481,
                            "alt": 2479
                          },
                          "children": []
                        },
                        {
                          "id": "ind183",
                          "name": "Warpath",
                          "type": "individual",
                          "position": {
                            "lat": 46.501476,
                            "lon": 8.08642,
                            "alt": 2482
                          },
                          "children": []
                        },
                        {
                          "id": "ind184",
                          "name": "Yellowjacket",
                          "type": "individual",
                          "position": {
                            "lat": 46.501547,
                            "lon": 8.08629,
                            "alt": 2469
                          },
                          "children": []
                        },
                        {
                          "id": "ind185",
                          "name": "Zero",
                          "type": "individual",
                          "position": {
                            "lat": 46.501521,
                            "lon": 8.086074,
                            "alt": 2518
                          },
                          "children": []
                        },
                        {
                          "id": "ind186",
                          "name": "Anvil",
                          "type": "individual",
                          "position": {
                            "lat": 46.501661,
                            "lon": 8.086005,
                            "alt": 2501
                          },
                          "children": []
                        },
                        {
                          "id": "ind187",
                          "name": "Barrage",
                          "type": "individual",
                          "position": {
                            "lat": 46.50161,
                            "lon": 8.085768,
                            "alt": 2455
                          },
                          "children": []
                        }
                      ],
                      "commander": {
                        "id": "cmd188",
                        "name": "Cmd. Claymore",
                        "position": {
                          "lat": 46.500693,
                          "lon": 8.085925,
                          "alt": 2554
                        }
                      }
                    },
                    {
                      "id": "sq202",
                      "name": "14 Sqd",
                      "type": "squad",
                      "children": [
                        {
                          "id": "ind190",
                          "name": "Dire",
                          "type": "individual",
                          "position": {
                            "lat": 46.501551,
                            "lon": 8.085515,
                            "alt": 2495
                          },
                          "children": []
                        },
                        {
                          "id": "ind191",
                          "name": "Epoch",
                          "type": "individual",
                          "position": {
                            "lat": 46.50155,
                            "lon": 8.085318,
                            "alt": 2500
                          },
                          "children": []
                        },
                        {
                          "id": "ind192",
                          "name": "Frostbite",
                          "type": "individual",
                          "position": {
                            "lat": 46.501593,
                            "lon": 8.085162,
                            "alt": 2461
                          },
                          "children": []
                        },
                        {
                          "id": "ind193",
                          "name": "Galahad",
                          "type": "individual",
                          "position": {
                            "lat": 46.501598,
                            "lon": 8.08497,
                            "alt": 2498
                          },
                          "children": []
                        },
                        {
                          "id": "ind194",
                          "name": "Hellfire",
                          "type": "individual",
                          "position": {
                            "lat": 46.501793,
                            "lon": 8.084958,
                            "alt": 2451
                          },
                          "children": []
                        },
                        {
                          "id": "ind195",
                          "name": "Ibex",
                          "type": "individual",
                          "position": {
                            "lat": 46.50179,
                            "lon": 8.084759,
                            "alt": 2481
                          },
                          "children": []
                        },
                        {
                          "id": "ind196",
                          "name": "Joker",
                          "type": "individual",
                          "position": {
                            "lat": 46.50189,
                            "lon": 8.084656,
                            "alt": 2539
                          },
                          "children": []
                        },
                        {
                          "id": "ind197",
                          "name": "Krieg",
                          "type": "individual",
                          "position": {
                            "lat": 46.501819,
                            "lon": 8.084394,
                            "alt": 2466
                          },
                          "children": []
                        },
                        {
                          "id": "ind198",
                          "name": "Locust",
                          "type": "individual",
                          "position": {
                            "lat": 46.501864,
                            "lon": 8.084239,
                            "alt": 2497
                          },
                          "children": []
                        },
                        {
                          "id": "ind199",
                          "name": "Mace",
                          "type": "individual",
                          "position": {
                            "lat": 46.502047,
                            "lon": 8.084215,
                            "alt": 2478
                          },
                          "children": []
                        },
                        {
                          "id": "ind200",
                          "name": "Nightfall",
                          "type": "individual",
                          "position": {
                            "lat": 46.50211,
                            "lon": 8.084078,
                            "alt": 2518
                          },
                          "children": []
                        }
                      ],
                      "commander": {
                        "id": "cmd201",
                        "name": "Cmd. Ogre",
                        "position": {
                          "lat": 46.501044,
                          "lon": 8.084056,
                          "alt": 2533
                        }
                      }
                    },
                    {
                      "id": "sq215",
                      "name": "15 Sqd",
                      "type": "squad",
                      "children": [
                        {
                          "id": "ind203",
                          "name": "Pyre",
                          "type": "individual",
                          "position": {
                            "lat": 46.501953,
                            "lon": 8.083706,
                            "alt": 2510
                          },
                          "children": []
                        },
                        {
                          "id": "ind204",
                          "name": "Quake",
                          "type": "individual",
                          "position": {
                            "lat": 46.501919,
                            "lon": 8.083493,
                            "alt": 2542
                          },
                          "children": []
                        },
                        {
                          "id": "ind205",
                          "name": "Reckoner",
                          "type": "individual",
                          "position": {
                            "lat": 46.502038,
                            "lon": 8.083399,
                            "alt": 2541
                          },
                          "children": []
                        },
                        {
                          "id": "ind206",
                          "name": "Scythe",
                          "type": "individual",
                          "position": {
                            "lat": 46.501987,
                            "lon": 8.083172,
                            "alt": 2483
                          },
                          "children": []
                        },
                        {
                          "id": "ind207",
                          "name": "Typhon",
                          "type": "individual",
                          "position": {
                            "lat": 46.502227,
                            "lon": 8.083172,
                            "alt": 2474
                          },
                          "children": []
                        },
                        {
                          "id": "ind208",
                          "name": "Undertow",
                          "type": "individual",
                          "position": {
                            "lat": 46.502251,
                            "lon": 8.083003,
                            "alt": 2532
                          },
                          "children": []
                        },
                        {
                          "id": "ind209",
                          "name": "Vortex",
                          "type": "individual",
                          "position": {
                            "lat": 46.502118,
                            "lon": 8.082713,
                            "alt": 2446
                          },
                          "children": []
                        },
                        {
                          "id": "ind210",
                          "name": "Wyvern",
                          "type": "individual",
                          "position": {
                            "lat": 46.502376,
                            "lon": 8.082727,
                            "alt": 2460
                          },
                          "children": []
                        },
                        {
                          "id": "ind211",
                          "name": "Crossbow",
                          "type": "individual",
                          "position": {
                            "lat": 46.502444,
                            "lon": 8.082593,
                            "alt": 2491
                          },
                          "children": []
                        },
                        {
                          "id": "ind212",
                          "name": "Bastion",
                          "type": "individual",
                          "position": {
                            "lat": 46.502347,
                            "lon": 8.08233,
                            "alt": 2540
                          },
                          "children": []
                        },
                        {
                          "id": "ind213",
                          "name": "Caliber",
                          "type": "individual",
                          "position": {
                            "lat": 46.502401,
                            "lon": 8.082186,
                            "alt": 2448
                          },
                          "children": []
                        }
                      ],
                      "commander": {
                        "id": "cmd214",
                        "name": "Cmd. Detonate",
                        "position": {
                          "lat": 46.501783,
                          "lon": 8.08264,
                          "alt": 2517
                        }
                      }
                    }
                  ],
                  "commander": {
                    "id": "cmd216",
                    "name": "Cmd. Exarch",
                    "position": {
                      "lat": 46.500854,
                      "lon": 8.083876,
                      "alt": 2501
                    }
                  },
                  "staff": [
                    {
                      "id": "staff218",
                      "name": "Stf. Flare",
                      "position": {
                        "lat": 46.500921,
                        "lon": 8.083733,
                        "alt": 2501
                      }
                    },
                    {
                      "id": "staff219",
                      "name": "Stf. Gale",
                      "position": {
                        "lat": 46.500834,
                        "lon": 8.083771,
                        "alt": 2501
                      }
                    }
                  ]
                },
                {
                  "id": "pl260",
                  "name": "13 Plt",
                  "type": "platoon",
                  "children": [
                    {
                      "id": "sq232",
                      "name": "16 Sqd",
                      "type": "squad",
                      "children": [
                        {
                          "id": "ind220",
                          "name": "Hoplite",
                          "type": "individual",
                          "position": {
                            "lat": 46.502345,
                            "lon": 8.082157,
                            "alt": 2449
                          },
                          "children": []
                        },
                        {
                          "id": "ind221",
                          "name": "Invictus",
                          "type": "individual",
                          "position": {
                            "lat": 46.50229,
                            "lon": 8.081973,
                            "alt": 2508
                          },
                          "children": []
                        },
                        {
                          "id": "ind222",
                          "name": "Jolt",
                          "type": "individual",
                          "position": {
                            "lat": 46.502499,
                            "lon": 8.081865,
                            "alt": 2511
                          },
                          "children": []
                        },
                        {
                          "id": "ind223",
                          "name": "Viper",
                          "type": "individual",
                          "position": {
                            "lat": 46.502388,
                            "lon": 8.081665,
                            "alt": 2498
                          },
                          "children": []
                        },
                        {
                          "id": "ind224",
                          "name": "Falcon",
                          "type": "individual",
                          "position": {
                            "lat": 46.502533,
                            "lon": 8.081538,
                            "alt": 2523
                          },
                          "children": []
                        },
                        {
                          "id": "ind225",
                          "name": "Raptor",
                          "type": "individual",
                          "position": {
                            "lat": 46.502556,
                            "lon": 8.081377,
                            "alt": 2474
                          },
                          "children": []
                        },
                        {
                          "id": "ind226",
                          "name": "Ghost",
                          "type": "individual",
                          "position": {
                            "lat": 46.502364,
                            "lon": 8.081154,
                            "alt": 2485
                          },
                          "children": []
                        },
                        {
                          "id": "ind227",
                          "name": "Shadow",
                          "type": "individual",
                          "position": {
                            "lat": 46.502385,
                            "lon": 8.080992,
                            "alt": 2452
                          },
                          "children": []
                        },
                        {
                          "id": "ind228",
                          "name": "Phoenix",
                          "type": "individual",
                          "position": {
                            "lat": 46.502591,
                            "lon": 8.080883,
                            "alt": 2508
                          },
                          "children": []
                        },
                        {
                          "id": "ind229",
                          "name": "Thunder",
                          "type": "individual",
                          "position": {
                            "lat": 46.502549,
                            "lon": 8.080703,
                            "alt": 2449
                          },
                          "children": []
                        },
                        {
                          "id": "ind230",
                          "name": "Eagle",
                          "type": "individual",
                          "position": {
                            "lat": 46.502459,
                            "lon": 8.080509,
                            "alt": 2467
                          },
                          "children": []
                        }
                      ],
                      "commander": {
                        "id": "cmd231",
                        "name": "Cmd. Wolf",
                        "position": {
                          "lat": 46.502399,
                          "lon": 8.081332,
                          "alt": 2512
                        }
                      }
                    },
                    {
                      "id": "sq245",
                      "name": "17 Sqd",
                      "type": "squad",
                      "children": [
                        {
                          "id": "ind233",
                          "name": "Cobra",
                          "type": "individual",
                          "position": {
                            "lat": 46.502631,
                            "lon": 8.080594,
                            "alt": 2464
                          },
                          "children": []
                        },
                        {
                          "id": "ind234",
                          "name": "Frost",
                          "type": "individual",
                          "position": {
                            "lat": 46.502611,
                            "lon": 8.080431,
                            "alt": 2513
                          },
                          "children": []
                        },
                        {
                          "id": "ind235",
                          "name": "Delta",
                          "type": "individual",
                          "position": {
                            "lat": 46.50272,
                            "lon": 8.080218,
                            "alt": 2485
                          },
                          "children": []
                        },
                        {
                          "id": "ind236",
                          "name": "Romeo",
                          "type": "individual",
                          "position": {
                            "lat": 46.502735,
                            "lon": 8.080041,
                            "alt": 2459
                          },
                          "children": []
                        },
                        {
                          "id": "ind237",
                          "name": "Ember",
                          "type": "individual",
                          "position": {
                            "lat": 46.502636,
                            "lon": 8.079909,
                            "alt": 2466
                          },
                          "children": []
                        },
                        {
                          "id": "ind238",
                          "name": "Marshal",
                          "type": "individual",
                          "position": {
                            "lat": 46.502591,
                            "lon": 8.079756,
                            "alt": 2442
                          },
                          "children": []
                        },
                        {
                          "id": "ind239",
                          "name": "Nitro",
                          "type": "individual",
                          "position": {
                            "lat": 46.502447,
                            "lon": 8.079642,
                            "alt": 2500
                          },
                          "children": []
                        },
                        {
                          "id": "ind240",
                          "name": "Onyx",
                          "type": "individual",
                          "position": {
                            "lat": 46.50241,
                            "lon": 8.079485,
                            "alt": 2456
                          },
                          "children": []
                        },
                        {
                          "id": "ind241",
                          "name": "Panther",
                          "type": "individual",
                          "position": {
                            "lat": 46.502469,
                            "lon": 8.079291,
                            "alt": 2501
                          },
                          "children": []
                        },
                        {
                          "id": "ind242",
                          "name": "Bolt",
                          "type": "individual",
                          "position": {
                            "lat": 46.502393,
                            "lon": 8.079151,
                            "alt": 2541
                          },
                          "children": []
                        },
                        {
                          "id": "ind243",
                          "name": "Kraken",
                          "type": "individual",
                          "position": {
                            "lat": 46.50241,
                            "lon": 8.078973,
                            "alt": 2534
                          },
                          "children": []
                        }
                      ],
                      "commander": {
                        "id": "cmd244",
                        "name": "Cmd. Trident",
                        "position": {
                          "lat": 46.502378,
                          "lon": 8.079839,
                          "alt": 2539
                        }
                      }
                    },
                    {
                      "id": "sq258",
                      "name": "18 Sqd",
                      "type": "squad",
                      "children": [
                        {
                          "id": "ind246",
                          "name": "Forge",
                          "type": "individual",
                          "position": {
                            "lat": 46.502816,
                            "lon": 8.078623,
                            "alt": 2473
                          },
                          "children": []
                        },
                        {
                          "id": "ind247",
                          "name": "Interceptor",
                          "type": "individual",
                          "position": {
                            "lat": 46.502826,
                            "lon": 8.078451,
                            "alt": 2518
                          },
                          "children": []
                        },
                        {
                          "id": "ind248",
                          "name": "Jackal",
                          "type": "individual",
                          "position": {
                            "lat": 46.502686,
                            "lon": 8.078328,
                            "alt": 2498
                          },
                          "children": []
                        },
                        {
                          "id": "ind249",
                          "name": "Longbow",
                          "type": "individual",
                          "position": {
                            "lat": 46.502623,
                            "lon": 8.07818,
                            "alt": 2500
                          },
                          "children": []
                        },
                        {
                          "id": "ind250",
                          "name": "Mongoose",
                          "type": "individual",
                          "position": {
                            "lat": 46.502714,
                            "lon": 8.077981,
                            "alt": 2498
                          },
                          "children": []
                        },
                        {
                          "id": "ind251",
                          "name": "Nighthawk",
                          "type": "individual",
                          "position": {
                            "lat": 46.50255,
                            "lon": 8.077866,
                            "alt": 2474
                          },
                          "children": []
                        },
                        {
                          "id": "ind252",
                          "name": "Papa",
                          "type": "individual",
                          "position": {
                            "lat": 46.502595,
                            "lon": 8.077682,
                            "alt": 2468
                          },
                          "children": []
                        },