{
  "id": "bde3641",
  "name": "1 Bde",
  "type": "brigade",
  "children": [
    {
      "id": "rgt1211",
      "name": "1 Rgt",
      "type": "regiment",
      "children": [
        {
          "id": "bn401",
          "name": "1 Bn",
          "type": "battalion",
          "children": [
            {
              "id": "co131",
              "name": "A Co",
              "type": "company",
              "children": [
                {
                  "id": "pl41",
                  "name": "1 Plt",
                  "type": "platoon",
                  "children": [
                    {
                      "id": "sq13",
                      "name": "1 Sqd",
                      "type": "squad",
                      "children": [
                        {
                          "id": "ind1",
                          "name": "Viper",
                          "type": "individual",
                          "position": {
                            "lat": 46.506152,
                            "lon": 8.103539,
                            "alt": 2576
                          },
                          "children": []
                        },
                        {
                          "id": "ind2",
                          "name": "Falcon",
                          "type": "individual",
                          "position": {
                            "lat": 46.505995,
                            "lon": 8.103536,
                            "alt": 2487
                          },
                          "children": []
                        },
                        {
                          "id": "ind3",
                          "name": "Raptor",
                          "type": "individual",
                          "position": {
                            "lat": 46.505876,
                            "lon": 8.103481,
                            "alt": 2503
                          },
                          "children": []
                        },
                        {
                          "id": "ind4",
                          "name": "Ghost",
                          "type": "individual",
                          "position": {
                            "lat": 46.505814,
                            "lon": 8.103343,
                            "alt": 2577
                          },
                          "children": []
                        },
                        {
                          "id": "ind5",
                          "name": "Shadow",
                          "type": "individual",
                          "position": {
                            "lat": 46.505766,
                            "lon": 8.103187,
                            "alt": 2492
                          },
                          "children": []
                        },
                        {
                          "id": "ind6",
                          "name": "Phoenix",
                          "type": "individual",
                          "position": {
                            "lat": 46.505704,
                            "lon": 8.10305,
                            "alt": 2530
                          },
                          "children": []
                        },
                        {
                          "id": "ind7",
                          "name": "Thunder",
                          "type": "individual",
                          "position": {
                            "lat": 46.505677,
                            "lon": 8.102863,
                            "alt": 2573
                          },
                          "children": []
                        },
                        {
                          "id": "ind8",
                          "name": "Eagle",
                          "type": "individual",
                          "position": {
                            "lat": 46.505596,
                            "lon": 8.102753,
                            "alt": 2499
                          },
                          "children": []
                        },
                        {
                          "id": "ind9",
                          "name": "Wolf",
                          "type": "individual",
                          "position": {
                            "lat": 46.505467,
                            "lon": 8.102712,
                            "alt": 2520
                          },
                          "children": []
                        },
                        {
                          "id": "ind10",
                          "name": "Cobra",
                          "type": "individual",
                          "position": {
                            "lat": 46.50537,
                            "lon": 8.102624,
                            "alt": 2554
                          },
                          "children": []
                        },
                        {
                          "id": "ind11",
                          "name": "Frost",
                          "type": "individual",
                          "position": {
                            "lat": 46.505228,
                            "lon": 8.102601,
                            "alt": 2478
                          },
                          "children": []
                        }
                      ],
                      "commander": {
                        "id": "cmd12",
                        "name": "Cmd. Delta",
                        "position": {
                          "lat": 46.505038,
                          "lon": 8.10181,
                          "alt": 2576
                        }
                      }
                    },
                    {
                      "id": "sq26",
                      "name": "2 Sqd",
                      "type": "squad",
                      "children": [
                        {
                          "id": "ind14",
                          "name": "Romeo",
                          "type": "individual",
                          "position": {
                            "lat": 46.504996,
                            "lon": 8.102529,
                            "alt": 2570
                          },
                          "children": []
                        },
                        {
                          "id": "ind15",
                          "name": "Ember",
                          "type": "individual",
                          "position": {
                            "lat": 46.504966,
                            "lon": 8.102374,
                            "alt": 2556
                          },
                          "children": []
                        },
                        {
                          "id": "ind16",
                          "name": "Marshal",
                          "type": "individual",
                          "position": {
                            "lat": 46.505139,
                            "lon": 8.102111,
                            "alt": 2570
                          },
                          "children": []
                        },
                        {
                          "id": "ind17",
                          "name": "Nitro",
                          "type": "individual",
                          "position": {
                            "lat": 46.504948,
                            "lon": 8.10204,
                            "alt": 2556
                          },
                          "children": []
                        },
                        {
                          "id": "ind18",
                          "name": "Onyx",
                          "type": "individual",
                          "position": {
                            "lat": 46.504917,
                            "lon": 8.101885,
                            "alt": 2483
                          },
                          "children": []
                        },
                        {
                          "id": "ind19",
                          "name": "Panther",
                          "type": "individual",
                          "position": {
                            "lat": 46.504853,
                            "lon": 8.101748,
                            "alt": 2516
                          },
                          "children": []
                        },
                        {
                          "id": "ind20",
                          "name": "Bolt",
                          "type": "individual",
                          "position": {
                            "lat": 46.504951,
                            "lon": 8.101524,
                            "alt": 2516
                          },
                          "children": []
                        },
                        {
                          "id": "ind21",
                          "name": "Kraken",
                          "type": "individual",
                          "position": {
                            "lat": 46.50495,
                            "lon": 8.101354,
                            "alt": 2546
                          },
                          "children": []
                        },
                        {
                          "id": "ind22",
                          "name": "Trident",
                          "type": "individual",
                          "position": {
                            "lat": 46.504821,
                            "lon": 8.101251,
                            "alt": 2516
                          },
                          "children": []
                        },
                        {
                          "id": "ind23",
                          "name": "Forge",
                          "type": "individual",
                          "position": {
                            "lat": 46.504673,
                            "lon": 8.101157,
                            "alt": 2498
                          },
                          "children": []
                        },
                        {
                          "id": "ind24",
                          "name": "Interceptor",
                          "type": "individual",
                          "position": {
                            "lat": 46.504669,
                            "lon": 8.100988,
                            "alt": 2521
                          },
                          "children": []
                        }
                      ],
                      "commander": {
                        "id": "cmd25",
                        "name": "Cmd. Jackal",
                        "position": {
                          "lat": 46.50414,
                          "lon": 8.100227,
                          "alt": 2555
                        }
                      }
                    },
                    {
                      "id": "sq39",
                      "name": "3 Sqd",
                      "type": "squad",
                      "children": [
                        {
                          "id": "ind27",
                          "name": "Longbow",
                          "type": "individual",
                          "position": {
                            "lat": 46.505136,
                            "lon": 8.100776,
                            "alt": 2477
                          },
                          "children": []
                        },
                        {
                          "id": "ind28",
                          "name": "Mongoose",
                          "type": "individual",
                          "position": {
                            "lat": 46.505125,
                            "lon": 8.100613,
                            "alt": 2497
                          },
                          "children": []
                        },
                        {
                          "id": "ind29",
                          "name": "Nighthawk",
                          "type": "individual",
                          "position": {
                            "lat": 46.505012,
                            "lon": 8.100437,
                            "alt": 2489
                          },
                          "children": []
                        },
                        {
                          "id": "ind30",
                          "name": "Papa",
                          "type": "individual",
                          "position": {
                            "lat": 46.505114,
                            "lon": 8.100288,
                            "alt": 2480
                          },
                          "children": []
                        },
                        {
                          "id": "ind31",
                          "name": "Quebec",
                          "type": "individual",
                          "position": {
                            "lat": 46.505105,
                            "lon": 8.100126,
                            "alt": 2473
                          },
                          "children": []
                        },
                        {
                          "id": "ind32",
                          "name": "Sierra",
                          "type": "individual",
                          "position": {
                            "lat": 46.505054,
                            "lon": 8.099958,
                            "alt": 2482
                          },
                          "children": []
                        },
                        {
                          "id": "ind33",
                          "name": "Whiskey",
                          "type": "individual",
                          "position": {
                            "lat": 46.505305,
                            "lon": 8.099827,
                            "alt": 2550
                          },
                          "children": []
                        },
                        {
                          "id": "ind34",
                          "name": "Flint",
                          "type": "individual",
                          "position": {
                            "lat": 46.505078,
                            "lon": 8.099637,
                            "alt": 2508
                          },
                          "children": []
                        },
                        {
                          "id": "ind35",
                          "name": "Warden",
                          "type": "individual",
                          "position": {
                            "lat": 46.505136,
                            "lon": 8.099483,
                            "alt": 2530
                          },
                          "children": []
                        },
                        {
                          "id": "ind36",
                          "name": "Inferno",
                          "type": "individual",
                          "position": {
                            "lat": 46.505234,
                            "lon": 8.099333,
                            "alt": 2520
                          },
                          "children": []
                        },
                        {
                          "id": "ind37",
                          "name": "Razor",
                          "type": "individual",
                          "position": {
                            "lat": 46.505248,
                            "lon": 8.099173,
                            "alt": 2468
                          },
                          "children": []
                        }
                      ],
                      "commander": {
                        "id": "cmd38",
                        "name": "Cmd. Sentinel",
                        "position": {
                          "lat": 46.503809,
                          "lon": 8.098747,
                          "alt": 2522
                        }
                      }
                    }
                  ],
                  "commander": {
                    "id": "cmd40",
                    "name": "Cmd. Vanguard",
                    "position": {
                      "lat": 46.503593,
                      "lon": 8.098527,
                      "alt": 2502
                    }
                  },
                  "staff": [
                    {
                      "id": "staff42",
                      "name": "Stf. Gladius",
                      "position": {
                        "lat": 46.503736,
                        "lon": 8.098503,
                        "alt": 2502
                      }
                    },
                    {
                      "id": "staff43",
                      "name": "Stf. Outlaw",
                      "position": {
                        "lat": 46.503528,
                        "lon": 8.098458,
                        "alt": 2502
                      }
                    }
                  ]
                },
                {
                  "id": "pl84",
                  "name": "2 Plt",
                  "type": "platoon",
                  "children": [
                    {
                      "id": "sq56",
                      "name": "4 Sqd",
                      "type": "squad",
                      "children": [
                        {
                          "id": "ind44",
                          "name": "Arsenal",
                          "type": "individual",
                          "position": {
                            "lat": 46.505154,
                            "lon": 8.099064,
                            "alt": 2467
                          },
                          "children": []
                        },
                        {
                          "id": "ind45",
                          "name": "Icarus",
                          "type": "individual",
                          "position": {
                            "lat": 46.505341,
                            "lon": 8.098986,
                            "alt": 2475
                          },
                          "children": []
                        },
                        {
                          "id": "ind46",
                          "name": "Nemesis",
                          "type": "individual",
                          "position": {
                            "lat": 46.505245,
                            "lon": 8.098769,
                            "alt": 2533
                          },
                          "children": []
                        },
                        {
                          "id": "ind47",
                          "name": "Corsair",
                          "type": "individual",
                          "position": {
                            "lat": 46.505308,
                            "lon": 8.09863,
                            "alt": 2466
                          },
                          "children": []
                        },
                        {
                          "id": "ind48",
                          "name": "Kestrel",
                          "type": "individual",
                          "position": {
                            "lat": 46.50525,
                            "lon": 8.098431,
                            "alt": 2508
                          },
                          "children": []
                        },
                        {
                          "id": "ind49",
                          "name": "Scorpion",
                          "type": "individual",
                          "position": {
                            "lat": 46.505333,
                            "lon": 8.098302,
                            "alt": 2562
                          },
                          "children": []
                        },
                        {
                          "id": "ind50",
                          "name": "Ace",
                          "type": "individual",
                          "position": {
                            "lat": 46.505362,
                            "lon": 8.098146,
                            "alt": 2464
                          },
                          "children": []
                        },
                        {
                          "id": "ind51",
                          "name": "Revenant",
                          "type": "individual",
                          "position": {
                            "lat": 46.505514,
                            "lon": 8.098051,
                            "alt": 2540
                          },
                          "children": []
                        },
                        {
                          "id": "ind52",
                          "name": "Praetor",
                          "type": "individual",
                          "position": {
                            "lat": 46.505522,
                            "lon": 8.097885,
                            "alt": 2484
                          },
                          "children": []
                        },
                        {
                          "id": "ind53",
                          "name": "Centurion",
                          "type": "individual",
                          "position": {
                            "lat": 46.505539,
                            "lon": 8.097723,
                            "alt": 2527
                          },
                          "children": []
                        },
                        {
                          "id": "ind54",
                          "name": "Condor",
                          "type": "individual",
                          "position": {
                            "lat": 46.505612,
                            "lon": 8.097589,
                            "alt": 2539
                          },
                          "children": []
                        }
                      ],
                      "commander": {
                        "id": "cmd55",
                        "name": "Cmd. Harrier",
                        "position": {
                          "lat": 46.503871,
                          "lon": 8.097269,
                          "alt": 2516
                        }
                      }
                    },
                    {
                      "id": "sq69",
                      "name": "5 Sqd",
                      "type": "squad",
                      "children": [
                        {
                          "id": "ind57",
                          "name": "Monarch",
                          "type": "individual",
                          "position": {
                            "lat": 46.505754,
                            "lon": 8.097538,
                            "alt": 2511
                          },
                          "children": []
                        },
                        {
                          "id": "ind58",
                          "name": "Sovereign",
                          "type": "individual",
                          "position": {
                            "lat": 46.505755,
                            "lon": 8.097361,
                            "alt": 2493
                          },
                          "children": []
                        },
                        {
                          "id": "ind59",
                          "name": "Sledgehammer",
                          "type": "individual",
                          "position": {
                            "lat": 46.505683,
                            "lon": 8.097136,
                            "alt": 2521
                          },
                          "children": []
                        },
                        {
                          "id": "ind60",
                          "name": "Tomahawk",
                          "type": "individual",
                          "position": {
                            "lat": 46.5058,
                            "lon": 8.097037,
                            "alt": 2487
                          },
                          "children": []
                        },
                        {
                          "id": "ind61",
                          "name": "Warlock",
                          "type": "individual",
                          "position": {
                            "lat": 46.505759,
                            "lon": 8.096833,
                            "alt": 2548
                          },
                          "children": []
                        },
                        {
                          "id": "ind62",
                          "name": "Ares",
                          "type": "individual",
                          "position": {
                            "lat": 46.505864,
                            "lon": 8.096725,
                            "alt": 2530
                          },
                          "children": []
                        },
                        {
                          "id": "ind63",
                          "name": "Raptor",
                          "type": "individual",
                          "position": {
                            "lat": 46.505926,
                            "lon": 8.096589,
                            "alt": 2554
                          },
                          "children": []
                        },
                        {
                          "id": "ind64",
                          "name": "Bulldog",
                          "type": "individual",
                          "position": {
                            "lat": 46.506041,
                            "lon": 8.096489,
                            "alt": 2481
                          },
                          "children": []
                        },
                        {
                          "id": "ind65",
                          "name": "Striker",
                          "type": "individual",
                          "position": {
                            "lat": 46.505981,
                            "lon": 8.096272,
                            "alt": 2502
                          },
                          "children": []
                        },
                        {
                          "id": "ind66",
                          "name": "Overlord",
                          "type": "individual",
                          "position": {
                            "lat": 46.506133,
                            "lon": 8.096196,
                            "alt": 2540
                          },
                          "children": []
                        },
                        {
                          "id": "ind67",
                          "name": "Sabre",
                          "type": "individual",
                          "position": {
                            "lat": 46.506234,
                            "lon": 8.096086,
                            "alt": 2539
                          },
                          "children": []
                        }
                      ],
                      "commander": {
                        "id": "cmd68",
                        "name": "Cmd. Talon",
                        "position": {
                          "lat": 46.504537,
                          "lon": 8.095335,
                          "alt": 2529
                        }
                      }
                    },
                    {
                      "id": "sq82",
                      "name": "6 Sqd",
                      "type": "squad",
                      "children": [
                        {
                          "id": "ind70",
                          "name": "Bravo",
                          "type": "individual",
                          "position": {
                            "lat": 46.505601,
                            "lon": 8.095461,
                            "alt": 2542
                          },
                          "children": []
                        },
                        {
                          "id": "ind71",
                          "name": "Spartan",
                          "type": "individual",
                          "position": {
                            "lat": 46.505676,
                            "lon": 8.095334,
                            "alt": 2495
                          },
                          "children": []
                        },
                        {
                          "id": "ind72",
                          "name": "Titan",
                          "type": "individual",
                          "position": {
                            "lat": 46.505639,
                            "lon": 8.095131,
                            "alt": 2501
                          },
                          "children": []
                        },
                        {
                          "id": "ind73",
                          "name": "Nomad",
                          "type": "individual",
                          "position": {
                            "lat": 46.505849,
                            "lon": 8.095097,
                            "alt": 2470
                          },
                          "children": []
                        },
                        {
                          "id": "ind74",
                          "name": "Blaze",
                          "type": "individual",
                          "position": {
                            "lat": 46.505775,
                            "lon": 8.094868,
                            "alt": 2473
                          },
                          "children": []
                        },
                        {
                          "id": "ind75",
                          "name": "Hammer",
                          "type": "individual",
                          "position": {
                            "lat": 46.505935,
                            "lon": 8.0948,
                            "alt": 2504
                          },
                          "children": []
                        },
                        {
                          "id": "ind76",
                          "name": "Iron",
                          "type": "individual",
                          "position": {
                            "lat": 46.506013,
                            "lon": 8.094675,
                            "alt": 2503
                          },
                          "children": []
                        },
                        {
                          "id": "ind77",
                          "name": "Javelin",
                          "type": "individual",
                          "position": {
                            "lat": 46.505905,
                            "lon": 8.094423,
                            "alt": 2491
                          },
                          "children": []
                        },
                        {
                          "id": "ind78",
                          "name": "Knight",
                          "type": "individual",
                          "position": {
                            "lat": 46.505934,
                            "lon": 8.094265,
                            "alt": 2480
                          },
                          "children": []
                        },
                        {
                          "id": "ind79",
                          "name": "Lancer",
                          "type": "individual",
                          "position": {
                            "lat": 46.506191,
                            "lon": 8.094264,
                            "alt": 2487
                          },
                          "children": []
                        },
                        {
                          "id": "ind80",
                          "name": "Storm",
                          "type": "individual",
                          "position": {
                            "lat": 46.506135,
                            "lon": 8.094047,
                            "alt": 2498
                          },
                          "children": []
                        }
                      ],
                      "commander": {
                        "id": "cmd81",
                        "name": "Cmd. Tempest",
                        "position": {
                          "lat": 46.504585,
                          "lon": 8.093364,
                          "alt": 2479
                        }
                      }
                    }
                  ],
                  "commander": {
                    "id": "cmd83",
                    "name": "Cmd. Valkyrie",
                    "position": {
                      "lat": 46.503756,
                      "lon": 8.094634,
                      "alt": 2557
                    }
                  },
                  "staff": [
                    {
                      "id": "staff85",
                      "name": "Stf. Apex",
                      "position": {
                        "lat": 46.503805,
                        "lon": 8.094776,
                        "alt": 2557
                      }
                    },
                    {
                      "id": "staff86",
                      "name": "Stf. Fury",
                      "position": {
                        "lat": 46.503622,
                        "lon": 8.094759,
                        "alt": 2557
                      }
                    }
                  ]
                },
                {
                  "id": "pl127",
                  "name": "3 Plt",
                  "type": "platoon",
                  "children": [
                    {
                      "id": "sq99",
                      "name": "7 Sqd",
                      "type": "squad",
                      "children": [
                        {
                          "id": "ind87",
                          "name": "Grizzly",
                          "type": "individual",
                          "position": {
                            "lat": 46.505995,
                            "lon": 8.093835,
                            "alt": 2479
                          },
                          "children": []
                        },
                        {
                          "id": "ind88",
                          "name": "Hornet",
                          "type": "individual",
                          "position": {
                            "lat": 46.506124,
                            "lon": 8.09373,
                            "alt": 2530
                          },
                          "children": []
                        },
                        {
                          "id": "ind89",
                          "name": "Inferno",
                          "type": "individual",
                          "position": {
                            "lat": 46.505954,
                            "lon": 8.093474,
                            "alt": 2507
                          },
                          "children": []
                        },
                        {
                          "id": "ind90",
                          "name": "Neptune",
                          "type": "individual",
                          "position": {
                            "lat": 46.505969,
                            "lon": 8.093311,
                            "alt": 2541
                          },
                          "children": []
                        },
                        {
                          "id": "ind91",
                          "name": "Odin",
                          "type": "individual",
                          "position": {
                            "lat": 46.506051,
                            "lon": 8.093182,
                            "alt": 2547
                          },
                          "children": []
                        },
                        {
                          "id": "ind92",
                          "name": "Patriot",
                          "type": "individual",
                          "position": {
                            "lat": 46.506212,
                            "lon": 8.093093,
                            "alt": 2524
                          },
                          "children": []
                        },
                        {
                          "id": "ind93",
                          "name": "Cipher",
                          "type": "individual",
                          "position": {
                            "lat": 46.506307,
                            "lon": 8.09297,
                            "alt": 2526
                          },
                          "children": []
                        },
                        {
                          "id": "ind94",
                          "name": "Drake",
                          "type": "individual",
                          "position": {
                            "lat": 46.506335,
                            "lon": 8.092814,
                            "alt": 2508
                          },
                          "children": []
                        },
                        {
                          "id": "ind95",
                          "name": "Legion",
                          "type": "individual",
                          "position": {
                            "lat": 46.506361,
                            "lon": 8.092657,
                            "alt": 2474
                          },
                          "children": []
                        },
                        {
                          "id": "ind96",
                          "name": "Mirage",
                          "type": "individual",
                          "position": {
                            "lat": 46.506357,
                            "lon": 8.092484,
                            "alt": 2499
                          },
                          "children": []
                        },
                        {
                          "id": "ind97",
                          "name": "Spectre",
                          "type": "individual",
                          "position": {
                            "lat": 46.506414,
                            "lon": 8.092342,
                            "alt": 2504
                          },
                          "children": []
                        }
                      ],
                      "commander": {
                        "id": "cmd98",
                        "name": "Cmd. Torque",
                        "position": {
                          "lat": 46.50571,
                          "lon": 8.092032,
                          "alt": 2544
                        }
                      }
                    },
                    {
                      "id": "sq112",
                      "name": "8 Sqd",
                      "type": "squad",
                      "children": [
                        {
                          "id": "ind100",
                          "name": "Dynamo",
                          "type": "individual",
                          "position": {
                            "lat": 46.507348,
                            "lon": 8.092141,
                            "alt": 2527
                          },
                          "children": []
                        },
                        {
                          "id": "ind101",
                          "name": "Eclipse",
                          "type": "individual",
                          "position": {
                            "lat": 46.507177,
                            "lon": 8.09203,
                            "alt": 2474
                          },
                          "children": []
                        },
                        {
                          "id": "ind102",
                          "name": "Goliath",
                          "type": "individual",
                          "position": {
                            "lat": 46.507291,
                            "lon": 8.09183,
                            "alt": 2505
                          },
                          "children": []
                        },
                        {
                          "id": "ind103",
                          "name": "Hydra",
                          "type": "individual",
                          "position": {
                            "lat": 46.50726,
                            "lon": 8.091674,
                            "alt": 2448
                          },
                          "children": []
                        },
                        {
                          "id": "ind104",
                          "name": "Leopard",
                          "type": "individual",
                          "position": {
                            "lat": 46.507016,
                            "lon": 8.091586,
                            "alt": 2441
                          },
                          "children": []
                        },
                        {
                          "id": "ind105",
                          "name": "Mustang",
                          "type": "individual",
                          "position": {
                            "lat": 46.507172,
                            "lon": 8.091373,
                            "alt": 2520
                          },
                          "children": []
                        },
                        {
                          "id": "ind106",
                          "name": "Nova",
                          "type": "individual",
                          "position": {
                            "lat": 46.507059,
                            "lon": 8.091243,
                            "alt": 2493
                          },
                          "children": []
                        },
                        {
                          "id": "ind107",
                          "name": "Orion",
                          "type": "individual",
                          "position": {
                            "lat": 46.507011,
                            "lon": 8.091094,
                            "alt": 2458
                          },
                          "children": []
                        },
                        {
                          "id": "ind108",
                          "name": "Phantom",
                          "type": "individual",
                          "position": {
                            "lat": 46.507064,
                            "lon": 8.090912,
                            "alt": 2453
                          },
                          "children": []
                        },
                        {
                          "id": "ind109",
                          "name": "Viking",
                          "type": "individual",
                          "position": {
                            "lat": 46.506987,
                            "lon": 8.090772,
                            "alt": 2535
                          },
                          "children": []
                        },
                        {
                          "id": "ind110",
                          "name": "Wolverine",
                          "type": "individual",
                          "position": {
                            "lat": 46.506975,
                            "lon": 8.090611,
                            "alt": 2504
                          },
                          "children": []
                        }
                      ],
                      "commander": {
                        "id": "cmd111",
                        "name": "Cmd. Zenith",
                        "position": {
                          "lat": 46.505399,
                          "lon": 8.089803,
                          "alt": 2481
                        }
                      }
                    },
                    {
                      "id": "sq125",
                      "name": "9 Sqd",
                      "type": "squad",
                      "children": [
                        {
                          "id": "ind113",
                          "name": "Atlas",
                          "type": "individual",
                          "position": {
                            "lat": 46.506192,
                            "lon": 8.091211,
                            "alt": 2480
                          },
                          "children": []
                        },
                        {
                          "id": "ind114",
                          "name": "Bandit",
                          "type": "individual",
                          "position": {
                            "lat": 46.506085,
                            "lon": 8.091163,
                            "alt": 2483
                          },
                          "children": []
                        },
                        {
                          "id": "ind115",
                          "name": "Dagger",
                          "type": "individual",
                          "position": {
                            "lat": 46.505982,
                            "lon": 8.091104,
                            "alt": 2482
                          },
                          "children": []
                        },
                        {
                          "id": "ind116",
                          "name": "Enforcer",
                          "type": "individual",
                          "position": {
                            "lat": 46.505966,
                            "lon": 8.090778,
                            "alt": 2502
                          },
                          "children": []
                        },
                        {
                          "id": "ind117",
                          "name": "Foxhound",
                          "type": "individual",
                          "position": {
                            "lat": 46.505854,
                            "lon": 8.090746,
                            "alt": 2458
                          },
                          "children": []
                        },
                        {
                          "id": "ind118",
                          "name": "Gunner",
                          "type": "individual",
                          "position": {
                            "lat": 46.505705,
                            "lon": 8.090826,
                            "alt": 2494
                          },
                          "children": []
                        },
                        {
                          "id": "ind119",
                          "name": "Hercules",
                          "type": "individual",
                          "position": {
                            "lat": 46.505589,
                            "lon": 8.090808,
                            "alt": 2490
                          },
                          "children": []
                        },
                        {
                          "id": "ind120",
                          "name": "Juggernaut",
                          "type": "individual",
                          "position": {
                            "lat": 46.505529,
                            "lon": 8.090616,
                            "alt": 2458
                          },
                          "children": []
                        },
                        {
                          "id": "ind121",
                          "name": "Kodiak",
                          "type": "individual",
                          "position": {
                            "lat": 46.50546,
                            "lon": 8.090453,
                            "alt": 2520
                          },
                          "children": []
                        },
                        {
                          "id": "ind122",
                          "name": "Lynx",
                          "type": "individual",
                          "position": {
                            "lat": 46.505298,
                            "lon": 8.090572,
                            "alt": 2522
                          },
                          "children": []
                        },
                        {
                          "id": "ind123",
                          "name": "Mantis",
                          "type": "individual",
                          "position": {
                            "lat": 46.505289,
                            "lon": 8.090226,
                            "alt": 2466
                          },
                          "children": []
                        }
                      ],
                      "commander": {
                        "id": "cmd124",
                        "name": "Cmd. Bishop",
                        "position": {
                          "lat": 46.504847,
                          "lon": 8.089141,
                          "alt": 2490
                        }
                      }
                    }
                  ],
                  "commander": {
                    "id": "cmd126",
                    "name": "Cmd. Castle",
                    "position": {
                      "lat": 46.504382,
                      "lon": 8.089544,
                      "alt": 2454
                    }
                  },
                  "staff": [
                    {
                      "id": "staff128",
                      "name": "Stf. Draco",
                      "position": {
                        "lat": 46.504512,
                        "lon": 8.089675,
                        "alt": 2454
                      }
                    },
                    {
                      "id": "staff129",
                      "name": "Stf. Enigma",
                      "position": {
                        "lat": 46.504494,
                        "lon": 8.089505,
                        "alt": 2454
                      }
                    }
                  ]
                }
              ],
              "commander": {
                "id": "cmd130",
                "name": "Cmd. Firestorm",
                "position": {
                  "lat": 46.500876,
                  "lon": 8.094366,
                  "alt": 2517
                }
              },
              "staff": [
                {
                  "id": "staff132",
                  "name": "Stf. Quicksilver",
                  "position": {
                    "lat": 46.500872,
                    "lon": 8.094151,
                    "alt": 2517
                  }
                },
                {
                  "id": "staff133",
                  "name": "Stf. Ronin",
                  "position": {
                    "lat": 46.500812,
                    "lon": 8.094554,
                    "alt": 2517
                  }
                }
              ]
            },
            {
              "id": "co264",
              "name": "B Co",
              "type": "company",
              "children": [
                {
                  "id": "pl174",
                  "name": "11 Plt",
                  "type": "platoon",
                  "children": [
                    {
                      "id": "sq146",
                      "name": "10 Sqd",
                      "type": "squad",
                      "children": [
                        {
                          "id": "ind134",
                          "name": "Umbra",
                          "type": "individual",
                          "position": {
                            "lat": 46.50522,
                            "lon": 8.09009,
                            "alt": 2522
                          },
                          "children": []
                        },
                        {
                          "id": "ind135",
                          "name": "Vertex",
                          "type": "individual",
                          "position": {
                            "lat": 46.505083,
                            "lon": 8.090191,
                            "alt": 2472
                          },
                          "children": []
                        },
                        {
                          "id": "ind136",
                          "name": "Wildfire",
                          "type": "individual",
                          "position": {
                            "lat": 46.504999,
                            "lon": 8.09004,
                            "alt": 2454
                          },
                          "children": []
                        },
                        {
                          "id": "ind137",
                          "name": "Xenon",
                          "type": "individual",
                          "position": {
                            "lat": 46.504876,
                            "lon": 8.090074,
                            "alt": 2457
                          },
                          "children": []
                        },
                        {
                          "id": "ind138",
                          "name": "Yeti",
                          "type": "individual",
                          "position": {
                            "lat": 46.504752,
                            "lon": 8.090116,
                            "alt": 2471
                          },
                          "children": []
                        },
                        {
                          "id": "ind139",
                          "name": "Breaker",
                          "type": "individual",
                          "position": {
                            "lat": 46.504621,
                            "lon": 8.090188,
                            "alt": 2451
                          },
                          "children": []
                        },
                        {
                          "id": "ind140",
                          "name": "Dominator",
                          "type": "individual",
                          "position": {
                            "lat": 46.504583,
                            "lon": 8.089815,
                            "alt": 2532
                          },
                          "children": []
                        },
                        {
                          "id": "ind141",
                          "name": "Impulse",
                          "type": "individual",
                          "position": {
                            "lat": 46.504411,
                            "lon": 8.090083,
                            "alt": 2478
                          },
                          "children": []
                        },
                        {
                          "id": "ind142",
                          "name": "Jester",
                          "type": "individual",
                          "position": {
                            "lat": 46.504342,
                            "lon": 8.08986,
                            "alt": 2538
                          },
                          "children": []
                        },
                        {
                          "id": "ind143",
                          "name": "Rogue",
                          "type": "individual",
                          "position": {
                            "lat": 46.504263,
                            "lon": 8.089684,
                            "alt": 2539
                          },
                          "children": []
                        },
                        {
                          "id": "ind144",
                          "name": "Maverick",
                          "type": "individual",
                          "position": {
                            "lat": 46.50413,
                            "lon": 8.089766,
                            "alt": 2533
                          },
                          "children": []
                        }
                      ],
                      "commander": {
                        "id": "cmd145",
                        "name": "Cmd. Echo",
                        "position": {
                          "lat": 46.504003,
                          "lon": 8.088091,
                          "alt": 2459
                        }
                      }
                    },
                    {
                      "id": "sq159",
                      "name": "11 Sqd",
                      "type": "squad",
                      "children": [
                        {
                          "id": "ind147",
                          "name": "Foxtrot",
                          "type": "individual",
                          "position": {
                            "lat": 46.50413,
                            "lon": 8.08923,
                            "alt": 2480
                          },
                          "children": []
                        },
                        {
                          "id": "ind148",
                          "name": "Kilo",
                          "type": "individual",
                          "position": {
                            "lat": 46.503969,
                            "lon": 8.089313,
                            "alt": 2477
                          },
                          "children": []
                        },
                        {
                          "id": "ind149",
                          "name": "Lima",
                          "type": "individual",
                          "position": {
                            "lat": 46.503968,
                            "lon": 8.088995,
                            "alt": 2537
                          },
                          "children": []
                        },
                        {
                          "id": "ind150",
                          "name": "Oscar",
                          "type": "individual",
                          "position": {
                            "lat": 46.503846,
                            "lon": 8.088979,
                            "alt": 2485
                          },
                          "children": []
                        },
                        {
                          "id": "ind151",
                          "name": "Tango",
                          "type": "individual",
                          "position": {
                            "lat": 46.503786,
                            "lon": 8.088807,
                            "alt": 2531
                          },
                          "children": []
                        },
                        {
                          "id": "ind152",
                          "name": "Zulu",
                          "type": "individual",
                          "position": {
                            "lat": 46.503613,
                            "lon": 8.088921,
                            "alt": 2508
                          },
                          "children": []
                        },
                        {
                          "id": "ind153",
                          "name": "Archer",
                          "type": "individual",
                          "position": {
                            "lat": 46.503532,
                            "lon": 8.088805,
                            "alt": 2455
                          },
                          "children": []
                        },
                        {
                          "id": "ind154",
                          "name": "Hawk",
                          "type": "individual",
                          "position": {
                            "lat": 46.503479,
                            "lon": 8.088616,
                            "alt": 2491
                          },
                          "children": []
                        },
                        {
                          "id": "ind155",
                          "name": "Reaper",
                          "type": "individual",
                          "position": {
                            "lat": 46.503384,
                            "lon": 8.088534,
                            "alt": 2467
                          },
                          "children": []
                        },
                        {
                          "id": "ind156",
                          "name": "Phalanx",
                          "type": "individual",
                          "position": {
                            "lat": 46.503206,
                            "lon": 8.088658,
                            "alt": 2479
                          },
                          "children": []
                        },
                        {
                          "id": "ind157",
                          "name": "Rampart",
                          "type": "individual",
                          "position": {
                            "lat": 46.503224,
                            "lon": 8.088292,
                            "alt": 2489
                          },
                          "children": []
                        }
                      ],
                      "commander": {
                        "id": "cmd158",
                        "name": "Cmd. Stalker",
                        "position": {
                          "lat": 46.502565,
                          "lon": 8.087842,
                          "alt": 2485
                        }
                      }
                    },
                    {
                      "id": "sq172",
                      "name": "12 Sqd",
                      "type": "squad",
                      "children": [
                        {
                          "id": "ind160",
                          "name": "Tigershark",
                          "type": "individual",
                          "position": {
                            "lat": 46.503106,
                            "lon": 8.088402,
                            "alt": 2520
                          },
                          "children": []
                        },
                        {
                          "id": "ind161",
                          "name": "Vandal",
                          "type": "individual",
                          "position": {
                            "lat": 46.503242,
                            "lon": 8.088234,
                            "alt": 2512
                          },
                          "children": []
                        },
                        {
                          "id": "ind162",
                          "name": "Wraith",
                          "type": "individual",
                          "position": {
                            "lat": 46.503102,
                            "lon": 8.08808,
                            "alt": 2450
                          },
                          "children": []
                        },
                        {
                          "id": "ind163",
                          "name": "Brimstone",
                          "type": "individual",
                          "position": {
                            "lat": 46.503229,
                            "lon": 8.087913,
                            "alt": 2521
                          },
                          "children": []
                        },
                        {
                          "id": "ind164",
                          "name": "Cutlass",
                          "type": "individual",
                          "position": {
                            "lat": 46.50335,
                            "lon": 8.087746,
                            "alt": 2476
                          },
                          "children": []
                        },
                        {
                          "id": "ind165",
                          "name": "Deacon",
                          "type": "individual",
                          "position": {
                            "lat": 46.503202,
                            "lon": 8.087592,
                            "alt": 2477
                          },
                          "children": []
                        },
                        {
                          "id": "ind166",
                          "name": "Falcon",
                          "type": "individual",
                          "position": {
                            "lat": 46.503173,
                            "lon": 8.087432,
                            "alt": 2546
                          },
                          "children": []
                        },
                        {
                          "id": "ind167",
                          "name": "Griffin",
                          "type": "individual",
                          "position": {
                            "lat": 46.50321,
                            "lon": 8.087269,
                            "alt": 2522
                          },
                          "children": []
                        },
                        {
                          "id": "ind168",
                          "name": "Havoc",
                          "type": "individual",
                          "position": {
                            "lat": 46.503245,
                            "lon": 8.087106,
                            "alt": 2452
                          },
                          "children": []
                        },
                        {
                          "id": "ind169",
                          "name": "Ironside",
                          "type": "individual",
                          "position": {
                            "lat": 46.503314,
                            "lon": 8.086942,
                            "alt": 2448
                          },
                          "children": []
                        },
                        {
                          "id": "ind170",
                          "name": "Jaguar",
                          "type": "individual",
                          "position": {
                            "lat": 46.503276,
                            "lon": 8.086782,
                            "alt": 2545
                          },
                          "children": []
                        }
                      ],
                      "commander": {
                        "id": "cmd171",
                        "name": "Cmd. Katana",
                        "position": {
                          "lat": 46.502267,
                          "lon": 8.086531,
                          "alt": 2505
                        }
                      }
                    }
                  ],
                  "commander": {
                    "id": "cmd173",
                    "name": "Cmd. Loki",
                    "position": {
                      "lat": 46.502011,
                      "lon": 8.085945,
                      "alt": 2529
                    }
                  },
                  "staff": [
                    {
                      "id": "staff175",
                      "name": "Stf. Magnum",
                      "position": {
                        "lat": 46.502148,
                        "lon": 8.08584,
                        "alt": 2529
                      }
                    },
                    {
                      "id": "staff176",
                      "name": "Stf. Northstar",
                      "position": {
                        "lat": 46.502112,
                        "lon": 8.085813,
                        "alt": 2529
                      }
                    }
                  ]
                },
                {
                  "id": "pl217",
                  "name": "12 Plt",
                  "type": "platoon",
                  "children": [
                    {
                      "id": "sq189",
                      "name": "13 Sqd",
                      "type": "squad",
                      "children": [
                        {
                          "id": "ind177",
                          "name": "Paladin",
                          "type": "individual",
                          "position": {
                            "lat": 46.50333,
                            "lon": 8.086862,
                            "alt": 2463
                          },
                          "children": []
                        },
                        {
                          "id": "ind178",
                          "name": "Rapier",
                          "type": "individual",
                          "position": {
                            "lat": 46.503229,
                            "lon": 8.086606,
                            "alt": 2490
                          },
                          "children": []
                        },
                        {
                          "id": "ind179",
                          "name": "Sable",
                          "type": "individual",
                          "position": {
                            "lat": 46.50323,
                            "lon": 8.086425,
                            "alt": 2479
                          },
                          "children": []
                        },
                        {
                          "id": "ind180",
                          "name": "Templar",
                          "type": "individual",
                          "position": {
                            "lat": 46.503335,
                            "lon": 8.086322,
                            "alt": 2516
                          },
                          "children": []
                        },
                        {
                          "id": "ind181",
                          "name": "Uppercut",
                          "type": "individual",
                          "position": {
                            "lat": 46.503506,
                            "lon": 8.08627,
                            "alt": 2464
                          },
                          "children": []
                        },
                        {
                          "id": "ind182",
                          "name": "Vigil",
                          "type": "individual",
                          "position": {
                            "lat": 46.503483,
                            "lon": 8.086071,
                            "alt": 2495
                          },
                          "children": []
                        },
                        {
                          "id": "ind183",
                          "name": "Warpath",
                          "type": "individual",
                          "position": {
                            "lat": 46.503554,
                            "lon": 8.085943,
                            "alt": 2531
                          },
                          "children": []
                        },
                        {
                          "id": "ind184",
                          "name": "Yellowjacket",
                          "type": "individual",
                          "position": {
                            "lat": 46.503479,
                            "lon": 8.085706,
                            "alt": 2460
                          },
                          "children": []
                        },
                        {
                          "id": "ind185",
                          "name": "Zero",
                          "type": "individual",
                          "position": {
                            "lat": 46.503654,
                            "lon": 8.085656,
                            "alt": 2447
                          },
                          "children": []
                        },
                        {
                          "id": "ind186",
                          "name": "Anvil",
                          "type": "individual",
                          "position": {
                            "lat": 46.503692,
                            "lon": 8.085503,
                            "alt": 2515
                          },
                          "children": []
                        },
                        {
                          "id": "ind187",
                          "name": "Barrage",
                          "type": "individual",
                          "position": {
                            "lat": 46.503616,
                            "lon": 8.085265,
                            "alt": 2533
                          },
                          "children": []
                        }
                      ],
                      "commander": {
                        "id": "cmd188",
                        "name": "Cmd. Claymore",
                        "position": {
                          "lat": 46.502445,
                          "lon": 8.0849,
                          "alt": 2508
                        }
                      }
                    },
                    {
                      "id": "sq202",
                      "name": "14 Sqd",
                      "type": "squad",
                      "children": [
                        {
                          "id": "ind190",
                          "name": "Dire",
                          "type": "individual",
                          "position": {
                            "lat": 46.503527,
                            "lon": 8.08499,
                            "alt": 2536
                          },
                          "children": []
                        },
                        {
                          "id": "ind191",
                          "name": "Epoch",
                          "type": "individual",
                          "position": {
                            "lat": 46.503586,
                            "lon": 8.084854,
                            "alt": 2456
                          },
                          "children": []
                        },
                        {
                          "id": "ind192",
                          "name": "Frostbite",
                          "type": "individual",
                          "position": {
                            "lat": 46.503574,
                            "lon": 8.084649,
                            "alt": 2516
                          },
                          "children": []
                        },
                        {
                          "id": "ind193",
                          "name": "Galahad",
                          "type": "individual",
                          "position": {
                            "lat": 46.503673,
                            "lon": 8.084551,
                            "alt": 2508
                          },
                          "children": []
                        },
                        {
                          "id": "ind194",
                          "name": "Hellfire",
                          "type": "individual",
                          "position": {
                            "lat": 46.503669,
                            "lon": 8.084354,
                            "alt": 2540
                          },
                          "children": []
                        },
                        {
                          "id": "ind195",
                          "name": "Ibex",
                          "type": "individual",
                          "position": {
                            "lat": 46.503736,
                            "lon": 8.084225,
                            "alt": 2531
                          },
                          "children": []
                        },
                        {
                          "id": "ind196",
                          "name": "Joker",
                          "type": "individual",
                          "position": {
                            "lat": 46.503781,
                            "lon": 8.084076,
                            "alt": 2511
                          },
                          "children": []
                        },
                        {
                          "id": "ind197",
                          "name": "Krieg",
                          "type": "individual",
                          "position": {
                            "lat": 46.50388,
                            "lon": 8.083978,
                            "alt": 2492
                          },
                          "children": []
                        },
                        {
                          "id": "ind198",
                          "name": "Locust",
                          "type": "individual",
                          "position": {
                            "lat": 46.50396,
                            "lon": 8.083862,
                            "alt": 2518
                          },
                          "children": []
                        },
                        {
                          "id": "ind199",
                          "name": "Mace",
                          "type": "individual",
                          "position": {
                            "lat": 46.50405,
                            "lon": 8.083755,
                            "alt": 2460
                          },
                          "children": []
                        },
                        {
                          "id": "ind200",
                          "name": "Nightfall",
                          "type": "individual",
                          "position": {
                            "lat": 46.50421,
                            "lon": 8.083716,
                            "alt": 2442
                          },
                          "children": []
                        }
                      ],
                      "commander": {
                        "id": "cmd201",
                        "name": "Cmd. Ogre",
                        "position": {
                          "lat": 46.502796,
                          "lon": 8.08284,
                          "alt": 2474
                        }
                      }
                    },
                    {
                      "id": "sq215",
                      "name": "15 Sqd",
                      "type": "squad",
                      "children": [
                        {
                          "id": "ind203",
                          "name": "Pyre",
                          "type": "individual",
                          "position": {
                            "lat": 46.504504,
                            "lon": 8.083743,
                            "alt": 2533
                          },
                          "children": []
                        },
                        {
                          "id": "ind204",
                          "name": "Quake",
                          "type": "individual",
                          "position": {
                            "lat": 46.504581,
                            "lon": 8.083623,
                            "alt": 2523
                          },
                          "children": []
                        },
                        {
                          "id": "ind205",
                          "name": "Reckoner",
                          "type": "individual",
                          "position": {
                            "lat": 46.504745,
                            "lon": 8.083582,
                            "alt": 2526
                          },
                          "children": []
                        },
                        {
                          "id": "ind206",
                          "name": "Scythe",
                          "type": "individual",
                          "position": {
                            "lat": 46.504677,
                            "lon": 8.083331,
                            "alt": 2534
                          },
                          "children": []
                        },
                        {
                          "id": "ind207",
                          "name": "Typhon",
                          "type": "individual",
                          "position": {
                            "lat": 46.504852,
                            "lon": 8.0833,
                            "alt": 2525
                          },
                          "children": []
                        },
                        {
                          "id": "ind208",
                          "name": "Undertow",
                          "type": "individual",
                          "position": {
                            "lat": 46.504839,
                            "lon": 8.083098,
                            "alt": 2472
                          },
                          "children": []
                        },
                        {
                          "id": "ind209",
                          "name": "Vortex",
                          "type": "individual",
                          "position": {
                            "lat": 46.504857,
                            "lon": 8.082924,
                            "alt": 2482
                          },
                          "children": []
                        },
                        {
                          "id": "ind210",
                          "name": "Wyvern",
                          "type": "individual",
                          "position": {
                            "lat": 46.505072,
                            "lon": 8.08293,
                            "alt": 2529
                          },
                          "children": []
                        },
                        {
                          "id": "ind211",
                          "name": "Crossbow",
                          "type": "individual",
                          "position": {
                            "lat": 46.504963,
                            "lon": 8.082641,
                            "alt": 2434
                          },
                          "children": []
                        },
                        {
                          "id": "ind212",
                          "name": "Bastion",
                          "type": "individual",
                          "position": {
                            "lat": 46.505232,
                            "lon": 8.082695,
                            "alt": 2459
                          },
                          "children": []
                        },
                        {
                          "id": "ind213",
                          "name": "Caliber",
                          "type": "individual",
                          "position": {
                            "lat": 46.505191,
                            "lon": 8.082468,
                            "alt": 2495
                          },
                          "children": []
                        }
                      ],
                      "commander": {
                        "id": "cmd214",
                        "name": "Cmd. Detonate",
                        "position": {
                          "lat": 46.503753,
                          "lon": 8.081388,
                          "alt": 2478
                        }
                      }
                    }
                  ],
                  "commander": {
                    "id": "cmd216",
                    "name": "Cmd. Exarch",
                    "position": {
                      "lat": 46.501886,
                      "lon": 8.082256,
                      "alt": 2533
                    }
                  },
                  "staff": [
                    {
                      "id": "staff218",
                      "name": "Stf. Flare",
                      "position": {
                        "lat": 46.50198,
                        "lon": 8.082237,
                        "alt": 2533
                      }
                    },
                    {
                      "id": "staff219",
                      "name": "Stf. Gale",
                      "position": {
                        "lat": 46.501913,
                        "lon": 8.082391,
                        "alt": 2533
                      }
                    }
                  ]
                },
                {
                  "id": "pl260",
                  "name": "13 Plt",
                  "type": "platoon",
                  "children": [
                    {
                      "id": "sq232",
                      "name": "16 Sqd",
                      "type": "squad",
                      "children": [
                        {
                          "id": "ind220",
                          "name": "Hoplite",
                          "type": "individual",
                          "position": {
                            "lat": 46.505212,
                            "lon": 8.082164,
                            "alt": 2509
                          },
                          "children": []
                        },
                        {
                          "id": "ind221",
                          "name": "Invictus",
                          "type": "individual",
                          "position": {
                            "lat": 46.505231,
                            "lon": 8.082005,
                            "alt": 2506
                          },
                          "children": []
                        },
                        {
                          "id": "ind222",
                          "name": "Jolt",
                          "type": "individual",
                          "position": {
                            "lat": 46.505329,
                            "lon": 8.081879,
                            "alt": 2486
                          },
                          "children": []
                        },
                        {
                          "id": "ind223",
                          "name": "Viper",
                          "type": "individual",
                          "position": {
                            "lat": 46.505299,
                            "lon": 8.081698,
                            "alt": 2467
                          },
                          "children": []
                        },
                        {
                          "id": "ind224",
                          "name": "Falcon",
                          "type": "individual",
                          "position": {
                            "lat": 46.505339,
                            "lon": 8.081547,
                            "alt": 2490
                          },
                          "children": []
                        },
                        {
                          "id": "ind225",
                          "name": "Raptor",
                          "type": "individual",
                          "position": {
                            "lat": 46.505349,
                            "lon": 8.081384,
                            "alt": 2492
                          },
                          "children": []
                        },
                        {
                          "id": "ind226",
                          "name": "Ghost",
                          "type": "individual",
                          "position": {
                            "lat": 46.50538,
                            "lon": 8.081229,
                            "alt": 2491
                          },
                          "children": []
                        },
                        {
                          "id": "ind227",
                          "name": "Shadow",
                          "type": "individual",
                          "position": {
                            "lat": 46.505511,
                            "lon": 8.081118,
                            "alt": 2468
                          },
                          "children": []
                        },
                        {
                          "id": "ind228",
                          "name": "Phoenix",
                          "type": "individual",
                          "position": {
                            "lat": 46.505536,
                            "lon": 8.08096,
                            "alt": 2525
                          },
                          "children": []
                        },
                        {
                          "id": "ind229",
                          "name": "Thunder",
                          "type": "individual",
                          "position": {
                            "lat": 46.505575,
                            "lon": 8.080809,
                            "alt": 2448
                          },
                          "children": []
                        },
                        {
                          "id": "ind230",
                          "name": "Eagle",
                          "type": "individual",
                          "position": {
                            "lat": 46.505535,
                            "lon": 8.080624,
                            "alt": 2479
                          },
                          "children": []
                        }
                      ],
                      "commander": {
                        "id": "cmd231",
                        "name": "Cmd. Wolf",
                        "position": {
                          "lat": 46.504246,
                          "lon": 8.080102,
                          "alt": 2534
                        }
                      }
                    },
                    {
                      "id": "sq245",
                      "name": "17 Sqd",
                      "type": "squad",
                      "children": [
                        {
                          "id": "ind233",
                          "name": "Cobra",
                          "type": "individual",
                          "position": {
                            "lat": 46.504925,
                            "lon": 8.08065,
                            "alt": 2471
                          },
                          "children": []
                        },
                        {
                          "id": "ind234",
                          "name": "Frost",
                          "type": "individual",
                          "position": {
                            "lat": 46.504959,
                            "lon": 8.0804,
                            "alt": 2523
                          },
                          "children": []
                        },
                        {
                          "id": "ind235",
                          "name": "Delta",
                          "type": "individual",
                          "position": {
                            "lat": 46.504935,
                            "lon": 8.08022,
                            "alt": 2457
                          },
                          "children": []
                        },
                        {
                          "id": "ind236",
                          "name": "Romeo",
                          "type": "individual",
                          "position": {
                            "lat": 46.50482,
                            "lon": 8.080149,
                            "alt": 2481
                          },
                          "children": []
                        },
                        {
                          "id": "ind237",
                          "name": "Ember",
                          "type": "individual",
                          "position": {
                            "lat": 46.50483,
                            "lon": 8.079929,
                            "alt": 2498
                          },
                          "children": []
                        },
                        {
                          "id": "ind238",
                          "name": "Marshal",
                          "type": "individual",
                          "position": {
                            "lat": 46.504607,
                            "lon": 8.079988,
                            "alt": 2524
                          },
                          "children": []
                        },
                        {
                          "id": "ind239",
                          "name": "Nitro",
                          "type": "individual",
                          "position": {
                            "lat": 46.504584,
                            "lon": 8.079806,
                            "alt": 2508
                          },
                          "children": []
                        },
                        {
                          "id": "ind240",
                          "name": "Onyx",
                          "type": "individual",
                          "position": {
                            "lat": 46.504431,
                            "lon": 8.079782,
                            "alt": 2523
                          },
                          "children": []
                        },
                        {
                          "id": "ind241",
                          "name": "Panther",
                          "type": "individual",
                          "position": {
                            "lat": 46.504381,
                            "lon": 8.079633,
                            "alt": 2513
                          },
                          "children": []
                        },
                        {
                          "id": "ind242",
                          "name": "Bolt",
                          "type": "individual",
                          "position": {
                            "lat": 46.504465,
                            "lon": 8.079323,
                            "alt": 2471
                          },
                          "children": []
                        },
                        {
                          "id": "ind243",
                          "name": "Kraken",
                          "type": "individual",
                          "position": {
                            "lat": 46.504373,
                            "lon": 8.079224,
                            "alt": 2516
                          },
                          "children": []
                        }
                      ],
                      "commander": {
                        "id": "cmd244",
                        "name": "Cmd. Trident",
                        "position": {
                          "lat": 46.504024,
                          "lon": 8.078665,
                          "alt": 2467
                        }
                      }
                    },
                    {
                      "id": "sq258",
                      "name": "18 Sqd",
                      "type": "squad",
                      "children": [
                        {
                          "id": "ind246",
                          "name": "Forge",
                          "type": "individual",
                          "position": {
                            "lat": 46.504578,
                            "lon": 8.078598,
                            "alt": 2513
                          },
                          "children": []
                        },
                        {
                          "id": "ind247",
                          "name": "Interceptor",
                          "type": "individual",
                          "position": {
                            "lat": 46.504472,
                            "lon": 8.078544,
                            "alt": 2530
                          },
                          "children": []
                        },
                        {
                          "id": "ind248",
                          "name": "Jackal",
                          "type": "individual",
                          "position": {
                            "lat": 46.504467,
                            "lon": 8.078235,
                            "alt": 2468
                          },
                          "children": []
                        },
                        {
                          "id": "ind249",
                          "name": "Longbow",
                          "type": "individual",
                          "position": {
                            "lat": 46.504347,
                            "lon": 8.078216,
                            "alt": 2442
                          },
                          "children": []
                        },
                        {
                          "id": "ind250",
                          "name": "Mongoose",
                          "type": "individual",
                          "position": {
                            "lat": 46.504276,
                            "lon": 8.078073,
                            "alt": 2464
                          },
                          "children": []
                        },
                        {
                          "id": "ind251",
                          "name": "Nighthawk",
                          "type": "individual",
                          "position": {
                            "lat": 46.504114,
                            "lon": 8.078157,
                            "alt": 2448
                          },
                          "children": []
                        },
                        {
                          "id": "ind252",
                          "name": "Papa",
                          "type": "individual",
                          "position": {
                            "lat": 46.504024,
                            "lon": 8.078063,
                            "alt": 2525
                          },
                          "children": []
                        },